{"count": 6760, "next": null, "previous": null, "results": [{"id": "S1001", "lat": "59.129980", "lon": "9.635100", "amenity": "recycling", "sortere_ref": "6", "source": "Sortere.no", "recycling_type": "container", "recycling": ["Glass packaging", "Metal packaging"], "location": "Down Town parkering", "address": "Kulltangvn. 55", "description": "Ligger ved parkeringsplassen p\u00e5 Down Town kj\u00f8pesenter./", "type": "returpunkt", "county": "Telemark", "distance": 0, "bookmark": 0, "timetag": 0}, {"id": "S1002", "lat": "59.142680", "lon": "9.649490", "amenity": "recycling", "sortere_ref": "7", "source": "Sortere.no", "recycling_type": "container", "recycling": ["Glass packaging", "Metal packaging"], "location": "Kiwi storveien", "address": "Storvn. 16, 3947 ", "description": 0, "type": "returpunkt", "county": "Telemark", "distance": 0, "bookmark": 0, "timetag": 0}, {"id": "S1003", "lat": "59.832798", "lon": "10.430035", "amenity": "recycling", "sortere_ref": "18", "source": "Sortere.no", "recycling_type": "container", "recycling": ["Glass packaging", "Metal packaging", "Textiles, clothes and shoes"], "location": "Elveroa, Asker sentrum", "address": "Hagal\u00f8kkveien 1, 1383 Asker", "description": "Mottaket er plassert p\u00e5 P-plassen.", "type": "returpunkt", "county": "Akershus", "distance": 0, "bookmark": 0, "timetag": 0}, {"id": "S1004", "lat": "59.843965", "lon": "10.457171", "amenity": "recycling", "sortere_ref": "25", "source": "Sortere.no", "recycling_type": "container", "recycling": ["Textiles, clothes and shoes"], "location": "H\u00f8n stasjon", "address": "Hofstadgata 60, 1384 Asker", "description": "Her kan du levere kl\u00e6r, fott\u00f8y og tekstiler til ombruk til Fretex.", "type": "returpunkt", "county": "Akershus", "distance": 0, "bookmark": 0, "timetag": 0}, {"id": "S1005", "lat": "59.831896", "lon": "10.429453", "amenity": "recycling", "sortere_ref": "32", "source": "Sortere.no", "recycling_type": "container", "recycling": ["Glass packaging", "Metal packaging"], "location": "Meny, Asker sentrum", "address": "Hagal\u00f8kkveien 7, 1383 Asker", "description": "St\u00e5r plassert til venstre p\u00e5 vei opp til P-hus 2.etg.", "type": "returpunkt", "county": "Akershus", "distance": 0, "bookmark": 0, "timetag": 0}, {"id": "S1006", "lat": "59.837072", "lon": "10.430828", "amenity": "recycling", "sortere_ref": "33", "source": "Sortere.no", "recycling_type": "container", "recycling": ["Glass packaging", "Metal packaging", "Textiles, clothes and shoes"], "location": "COOP, Askerholmen, Asker sentrum", "address": "Gml Drammensvei 227, 1383 Asker", "description": "St\u00e5r vis a vis Rimi-butikken.", "type": "returpunkt", "county": "Akershus", "distance": 0, "bookmark": 0, "timetag": 0}, {"id": "S1007", "lat": "59.837100", "lon": "10.434710", "amenity": "recycling", "sortere_ref": "34", "source": "Sortere.no", "recycling_type": "container", "recycling": ["Glass packaging", "Metal packaging"], "location": "Meny, Trekanten senter", "address": "Knud Askers vei 26, 1383 Asker", "description": "Inne p\u00e5 Trekanten ved panteautomat Meny.", "type": "returpunkt", "county": "Akershus", "distance": 0, "bookmark": 0, "timetag": 0}, {"id": "S1008", "lat": "59.833715", "lon": "10.442572", "amenity": "recycling", "sortere_ref": "35", "source": "Sortere.no", "recycling_type": "container", "recycling": ["Glass packaging", "Metal packaging"], "location": "Kiwi, Fusdal", "address": "Fusdal terrasse 3, 1387 Asker", "description": "St\u00e5r plassert p\u00e5 P-plassen ved butikken.", "type": "returpunkt", "county": "Akershus", "distance": 0, "bookmark": 0, "timetag": 0}, {"id": "S1009", "lat": "59.786370", "lon": "10.435671", "amenity": "recycling", "sortere_ref": "36", "source": "Sortere.no", "recycling_type": "container", "recycling": ["Glass packaging", "Metal packaging", "Textiles, clothes and shoes"], "location": "Kiwi, Heggedal", "address": "Heggedalsbakken 6, 1389 Heggedal", "description": "St\u00e5r p\u00e5 P-plassen vis a vis Kiwi.", "type": "returpunkt", "county": "Akershus", "distance": 0, "bookmark": 0, "timetag": 0}, {"id": "S1010", "lat": "59.791982", "lon": "10.447663", "amenity": "recycling", "sortere_ref": "37", "source": "Sortere.no", "recycling_type": "container", "recycling": ["Glass packaging", "Metal packaging"], "location": "COOP, Heggedal", "address": "Heggedalsveien 350, 1389 Heggedal", "description": "Her kan du levere glass- og emtallemballasje.", "type": "returpunkt", "county": "Akershus", "distance": 0, "bookmark": 0, "timetag": 0}, {"id": "S1011", "lat": "59.791990", "lon": "10.465850", "amenity": "recycling", "sortere_ref": "38", "source": "Sortere.no", "recycling_type": "container", "recycling": ["Glass packaging", "Metal packaging", "Textiles, clothes and shoes"], "location": "Yggeset avfallspark", "address": "Yggesetveien 14, 1389 Heggedal", "description": "Her kan du levere glass- og metallemballasje, samt kl\u00e6r, fott\u00f8y og tekstiler til Fretex og UFF.", "type": "farlig", "county": "Akershus", "distance": 0, "bookmark": 0, "timetag": 0}, {"id": "S1012", "lat": "59.819031", "lon": "10.429141", "amenity": "recycling", "sortere_ref": "39", "source": "Sortere.no", "recycling_type": "container", "recycling": ["Glass packaging", "Metal packaging", "Textiles, clothes and shoes"], "location": "COOP, Borgen", "address": "Borgenveien 120, 1388 Borgen", "description": "St\u00e5r ved siden av inngangen til Rimi.", "type": "returpunkt", "county": "Akershus", "distance": 0, "bookmark": 0, "timetag": 0}, {"id": "S1013", "lat": "59.819919", "lon": "10.381810", "amenity": "recycling", "sortere_ref": "42", "source": "Sortere.no", "recycling_type": "container", "recycling": ["Glass packaging", "Metal packaging", "Textiles, clothes and shoes"], "location": "COOP, Vard\u00e5sen", "address": "Slottsberget 2, 1385 Asker", "description": "St\u00e5r ved siden av butikken.", "type": "returpunkt", "county": "Akershus", "distance": 0, "bookmark": 0, "timetag": 0}, {"id": "S1014", "lat": "59.810537", "lon": "10.447618", "amenity": "recycling", "sortere_ref": "43", "source": "Sortere.no", "recycling_type": "container", "recycling": ["Glass packaging", "Metal packaging", "Textiles, clothes and shoes"], "location": "Rema 1000, Gullhella", "address": "Bukkemyrveien 4, 1386 Asker", "description": "Her kan du levere glass- og metallemballasje samt kl\u00e6r, fott\u00f8y og tekstiler til UFF", "type": "returpunkt", "county": "Akershus", "distance": 0, "bookmark": 0, "timetag": 0}, {"id": "S1015", "lat": "59.849982", "lon": "10.466258", "amenity": "recycling", "sortere_ref": "47", "source": "Sortere.no", "recycling_type": "container", "recycling": ["Glass packaging", "Metal packaging", "Textiles, clothes and shoes"], "location": "Matkroken, Vak\u00e5s", "address": "Jacob Neumannsv. 2, 1384 Asker", "description": "Containerne st\u00e5r mellom butikken og togstasjonen.", "type": "returpunkt", "county": "Akershus", "distance": 0, "bookmark": 0, "timetag": 0}, {"id": "S1016", "lat": "59.855717", "lon": "10.489360", "amenity": "recycling", "sortere_ref": "48", "source": "Sortere.no", "recycling_type": "container", "recycling": ["Glass packaging", "Metal packaging"], "location": "COOP, Nye Holmensenter", "address": "Vogellund 6, 1394 Holmen", "description": "ICA har eget mottak for glass- og metallemballasje inne i butikken ved panteautomat.", "type": "returpunkt", "county": "Akershus", "distance": 0, "bookmark": 0, "timetag": 0}, {"id": "S1017", "lat": "59.855324", "lon": "10.489596", "amenity": "recycling", "sortere_ref": "49", "source": "Sortere.no", "recycling_type": "container", "recycling": ["Glass packaging", "Metal packaging", "Textiles, clothes and shoes"], "location": "P-plass, gamle Holmensenter", "address": "Holmengata 6, 1394 Holmen", "description": "Nede p\u00e5 p-plassen ved Maxbo gamle Holmensenter.", "type": "returpunkt", "county": "Akershus", "distance": 0, "bookmark": 0, "timetag": 0}, {"id": "S1018", "lat": "59.862626", "lon": "10.488340", "amenity": "recycling", "sortere_ref": "51", "source": "Sortere.no", "recycling_type": "container", "recycling": ["Glass packaging", "Metal packaging"], "location": "Rema 1000, Nesbru", "address": "Gartnerveien 3, 1394 Holmen", "description": "Her kan du levere glass- og metallemballasje.", "type": "returpunkt", "county": "Akershus", "distance": 0, "bookmark": 0, "timetag": 0}, {"id": "S1019", "lat": "59.878374", "lon": "10.505866", "amenity": "recycling", "sortere_ref": "52", "source": "Sortere.no", "recycling_type": "container", "recycling": ["Glass packaging", "Metal packaging", "Textiles, clothes and shoes"], "location": "Meny, Slependen", "address": "Slependveien 110, 1396 Holmen", "description": "Her kan du levere glass- og metallemballasje samt kl\u00e6r, fott\u00f8y og tekstiler ombruk til Fretex.", "type": "returpunkt", "county": "Akershus", "distance": 0, "bookmark": 0, "timetag": 0}, {"id": "S1020", "lat": "59.828445", "lon": "10.472892", "amenity": "recycling", "sortere_ref": "55", "source": "Sortere.no", "recycling_type": "container", "recycling": ["Glass packaging", "Metal packaging", "Textiles, clothes and shoes"], "location": "Kiwi, Vettre", "address": "Slemmestadveien 174, 1392 Vettre", "description": "St\u00e5r vis a vis Kiwi.", "type": "returpunkt", "county": "Akershus", "distance": 0, "bookmark": 0, "timetag": 0}, {"id": "S1021", "lat": "59.792594", "lon": "10.485080", "amenity": "recycling", "sortere_ref": "56", "source": "Sortere.no", "recycling_type": "container", "recycling": ["Glass packaging", "Metal packaging", "Textiles, clothes and shoes"], "location": "COOP, Bjerk\u00e5s", "address": "H\u00f8ymyrmarka 3, 1391 Vollen", "description": "St\u00e5r vis a vis Rimi-butikken.", "type": "returpunkt", "county": "Akershus", "distance": 0, "bookmark": 0, "timetag": 0}, {"id": "S1022", "lat": "59.826398", "lon": "10.448464", "amenity": "recycling", "sortere_ref": "57", "source": "Sortere.no", "recycling_type": "container", "recycling": ["Glass packaging", "Metal packaging", "Textiles, clothes and shoes"], "location": "COOP, Bleiker", "address": "Morellveien 1, 1387 Asker", "description": "Her kan du levere glass- og metallemballasje samt kl\u00e6r, fott\u00f8y og tekstiler til UFF", "type": "returpunkt", "county": "Akershus", "distance": 0, "bookmark": 0, "timetag": 0}, {"id": "S1023", "lat": "59.426830", "lon": "11.343530", "amenity": "recycling", "sortere_ref": "63", "source": "Sortere.no", "recycling_type": "container", "recycling": ["Glass packaging", "Metal packaging"], "location": "Ved Gjensidige", "address": "Johs C Liens gate 2, 1890 RAKKESTAD", "description": "Returpunkt bak Gjensidige-bygget./Her kan du levere glass- og metallemballasje./", "type": "returpunkt", "county": "\u00d8stfold", "distance": 0, "bookmark": 0, "timetag": 0}, {"id": "S1024", "lat": "59.416680", "lon": "11.349690", "amenity": "recycling", "sortere_ref": "64", "source": "Sortere.no", "recycling_type": "container", "recycling": ["Glass packaging", "Metal packaging"], "location": "Kiwi Bergenhus", "address": "Sarpsborgveien 1, 1890 RAKKESTAD", "description": "Returpunkt ved Kiwi Bergenhus./Her kan du levere b\u00e5de glass- og metallemballasje./", "type": "returpunkt", "county": "\u00d8stfold", "distance": 0, "bookmark": 0, "timetag": 0}, {"id": "S1025", "lat": "59.356100", "lon": "11.422220", "amenity": "recycling", "sortere_ref": "65", "source": "Sortere.no", "recycling_type": "container", "recycling": ["Glass packaging", "Metal packaging"], "location": "S-markedet Degernes", "address": "Idrettsveien 2, 1892 DEGERNES", "description": "Returpunkt ved S-markedet Degernes./Her kan du levere b\u00e5de glass- og metallemballasje./", "type": "returpunkt", "county": "\u00d8stfold", "distance": 0, "bookmark": 0, "timetag": 0}, {"id": "S1026", "lat": "59.415630", "lon": "11.373250", "amenity": "recycling", "sortere_ref": "66", "source": "Sortere.no", "recycling_type": "container", "recycling": ["Dangerous waste", "Glass packaging", "Metal packaging"], "location": "Kopla", "address": "Str\u00f8mfossveien 135, 1890 RAKKESTAD", "description": "Returpunkt p\u00e5 Kopla./Her kan du levere b\u00e5de glass- og metallemballasje og farlig avfall./", "type": "returpunkt", "county": "\u00d8stfold", "distance": 0, "bookmark": 0, "timetag": 0}, {"id": "S1027", "lat": "60.382640", "lon": "5.151970", "amenity": "recycling", "sortere_ref": "68", "source": "Sortere.no", "recycling_type": "container", "recycling": ["Glass packaging", "Metal packaging"], "location": "Hjelteryggen", "address": "Hjelteryggvegen, 5355 ", "description": "span class=&quot;Apple-style-span&quot; style=&quot;font-family: Helvetica, Arial, Trebuchet, sans-serif; line-height: 16px; font-size: 13px; color: rgb(102, 102, 102); &quot;&gt;Vis a vis butikken\u00a0/span&gt;/", "type": "returpunkt", "county": "Hordaland", "distance": 0, "bookmark": 0, "timetag": 0}, {"id": "S1028", "lat": "58.452850", "lon": "5.975830", "amenity": "recycling", "sortere_ref": "110", "source": "Sortere.no", "recycling_type": "container", "recycling": ["Glass packaging"], "location": "Svanav\u00e5gveien, Eiger\u00f8y", "address": 0, "description": 0, "type": "returpunkt", "county": 0, "distance": 0, "bookmark": 0, "timetag": 0}, {"id": "S1029", "lat": "58.476980", "lon": "5.884470", "amenity": "recycling", "sortere_ref": "111", "source": "Sortere.no", "recycling_type": "container", "recycling": ["Glass packaging"], "location": "Kloppabekkveien, Hellvik", "address": 0, "description": 0, "type": "returpunkt", "county": 0, "distance": 0, "bookmark": 0, "timetag": 0}, {"id": "S1030", "lat": "58.460250", "lon": "6.001600", "amenity": "recycling", "sortere_ref": "112", "source": "Sortere.no", "recycling_type": "container", "recycling": ["Glass packaging"], "location": "Lind\u00f8yveien, Egersund", "address": 0, "description": 0, "type": "returpunkt", "county": 0, "distance": 0, "bookmark": 0, "timetag": 0}, {"id": "S1031", "lat": "58.535940", "lon": "6.154190", "amenity": "recycling", "sortere_ref": "113", "source": "Sortere.no", "recycling_type": "container", "recycling": ["Glass packaging"], "location": "Coop Marked, Helleland", "address": 0, "description": 0, "type": "returpunkt", "county": 0, "distance": 0, "bookmark": 0, "timetag": 0}, {"id": "S1032", "lat": "58.453000", "lon": "6.003490", "amenity": "recycling", "sortere_ref": "114", "source": "Sortere.no", "recycling_type": "container", "recycling": ["Glass packaging"], "location": "Amfi Egersund", "address": 0, "description": 0, "type": "returpunkt", "county": "Rogaland", "distance": 0, "bookmark": 0, "timetag": 0}, {"id": "S1033", "lat": "58.460640", "lon": "6.013810", "amenity": "recycling", "sortere_ref": "115", "source": "Sortere.no", "recycling_type": "container", "recycling": ["Glass packaging"], "location": "Rema 1000, Kvellure", "address": 0, "description": 0, "type": "returpunkt", "county": 0, "distance": 0, "bookmark": 0, "timetag": 0}, {"id": "S1034", "lat": "58.437550", "lon": "6.000860", "amenity": "recycling", "sortere_ref": "116", "source": "Sortere.no", "recycling_type": "container", "recycling": ["Glass packaging"], "location": "Joker, Nonsfjellveien", "address": 0, "description": 0, "type": "returpunkt", "county": 0, "distance": 0, "bookmark": 0, "timetag": 0}, {"id": "S1035", "lat": "58.438340", "lon": "6.010250", "amenity": "recycling", "sortere_ref": "117", "source": "Sortere.no", "recycling_type": "container", "recycling": ["Glass packaging"], "location": "ICA N\u00e6r, \u00c5rstaddalen", "address": 0, "description": 0, "type": "returpunkt", "county": 0, "distance": 0, "bookmark": 0, "timetag": 0}, {"id": "S1036", "lat": "58.451980", "lon": "6.002310", "amenity": "recycling", "sortere_ref": "118", "source": "Sortere.no", "recycling_type": "container", "recycling": ["Glass packaging"], "location": "Sentrum, ved Nille", "address": 0, "description": 0, "type": "returpunkt", "county": 0, "distance": 0, "bookmark": 0, "timetag": 0}, {"id": "S1037", "lat": "58.632190", "lon": "6.079040", "amenity": "recycling", "sortere_ref": "119", "source": "Sortere.no", "recycling_type": "container", "recycling": ["Glass packaging"], "location": "Coop Marked, Vikes\u00e5", "address": 0, "description": 0, "type": "returpunkt", "county": 0, "distance": 0, "bookmark": 0, "timetag": 0}, {"id": "S1038", "lat": "58.583710", "lon": "6.072710", "amenity": "recycling", "sortere_ref": "120", "source": "Sortere.no", "recycling_type": "container", "recycling": ["Glass packaging"], "location": "Coop Marked, Bjerkreim", "address": 0, "description": 0, "type": "returpunkt", "county": 0, "distance": 0, "bookmark": 0, "timetag": 0}, {"id": "S1039", "lat": "58.342170", "lon": "6.290790", "amenity": "recycling", "sortere_ref": "121", "source": "Sortere.no", "recycling_type": "container", "recycling": ["Glass packaging"], "location": "Coop Prix, Sokndal", "address": 0, "description": 0, "type": "returpunkt", "county": "Rogaland", "distance": 0, "bookmark": 0, "timetag": 0}, {"id": "S1040", "lat": "58.342210", "lon": "6.283810", "amenity": "recycling", "sortere_ref": "122", "source": "Sortere.no", "recycling_type": "container", "recycling": ["Glass packaging"], "location": "Rimi, Sokndal", "address": 0, "description": 0, "type": "returpunkt", "county": "Rogaland", "distance": 0, "bookmark": 0, "timetag": 0}, {"id": "S1041", "lat": "62.469980", "lon": "6.139190", "amenity": "recycling", "sortere_ref": "123", "source": "Sortere.no", "recycling_type": "container", "recycling": ["Glass packaging", "Metal packaging", "Textiles, clothes and shoes"], "location": "Skutvika", "address": "Nedre Strandgate 53, ", "description": "Nedre Strandgate, ved Rema 1000", "type": "returpunkt", "county": "M\u00f8re og Romsdal", "distance": 0, "bookmark": 0, "timetag": 0}, {"id": "S1042", "lat": "62.469590", "lon": "6.125870", "amenity": "recycling", "sortere_ref": "124", "source": "Sortere.no", "recycling_type": "container", "recycling": ["Glass packaging", "Metal packaging", "Textiles, clothes and shoes"], "location": "Steinv\u00e5gen", "address": "Brogata 1, ", "description": "Ved Bunnpris", "type": "returpunkt", "county": "M\u00f8re og Romsdal", "distance": 0, "bookmark": 0, "timetag": 0}, {"id": "S1043", "lat": "62.466620", "lon": "6.114730", "amenity": "recycling", "sortere_ref": "125", "source": "Sortere.no", "recycling_type": "container", "recycling": ["Glass packaging", "Metal packaging", "Textiles, clothes and shoes"], "location": "Skarb\u00f8vika", "address": 0, "description": "ved Kiwi/", "type": "returpunkt", "county": "M\u00f8re og Romsdal", "distance": 0, "bookmark": 0, "timetag": 0}, {"id": "S1044", "lat": "62.459580", "lon": "6.152060", "amenity": "recycling", "sortere_ref": "126", "source": "Sortere.no", "recycling_type": "container", "recycling": ["Glass packaging", "Metal packaging", "Textiles, clothes and shoes"], "location": "Slinningen", "address": "6006 \u00c5lesund", "description": "ved tidl. butikk/", "type": "returpunkt", "county": "M\u00f8re og Romsdal", "distance": 0, "bookmark": 0, "timetag": 0}, {"id": "S1045", "lat": "62.474100", "lon": "6.187800", "amenity": "recycling", "sortere_ref": "127", "source": "Sortere.no", "recycling_type": "container", "recycling": ["Glass packaging", "Metal packaging", "Textiles, clothes and shoes"], "location": "Fjelltun", "address": "Fjelltunvegen 66, ", "description": "ved butikk og holdeplass", "type": "returpunkt", "county": "M\u00f8re og Romsdal", "distance": 0, "bookmark": 0, "timetag": 0}, {"id": "S1046", "lat": "62.470620", "lon": "6.195370", "amenity": "recycling", "sortere_ref": "128", "source": "Sortere.no", "recycling_type": "container", "recycling": ["Glass packaging", "Metal packaging", "Textiles, clothes and shoes"], "location": "N\u00f8rvegata", "address": "N\u00f8rvegata, 6008 \u00c5lesund", "description": "Ved gangbrua", "type": "returpunkt", "county": "M\u00f8re og Romsdal", "distance": 0, "bookmark": 0, "timetag": 0}, {"id": "S1047", "lat": "62.432080", "lon": "6.413910", "amenity": "recycling", "sortere_ref": "129", "source": "Sortere.no", "recycling_type": "container", "recycling": ["Corrugated cardboard", "Beverage carton", "Packaging carton", "Glass packaging", "Metal packaging", "Paper", "Cardboard, paper and cardboard", "Plastic packaging", "Residual waste", "Textiles, clothes and shoes"], "location": "Flisneset", "address": "Flisnesvegen 1, 6012 \u00c5lesund", "description": "ved Kiwi Flisnes", "type": "hyttepunkt", "county": "M\u00f8re og Romsdal", "distance": 0, "bookmark": 0, "timetag": 0}, {"id": "S1048", "lat": "62.441990", "lon": "6.372050", "amenity": "recycling", "sortere_ref": "130", "source": "Sortere.no", "recycling_type": "container", "recycling": ["Glass packaging", "Metal packaging", "Textiles, clothes and shoes"], "location": "Blindheim", "address": "Gamle Blindheimsveg 25, 6012 \u00c5lesund", "description": "Ved Spar Blindheim", "type": "returpunkt", "county": "M\u00f8re og Romsdal", "distance": 0, "bookmark": 0, "timetag": 0}, {"id": "S1049", "lat": "62.465435", "lon": "6.349034", "amenity": "recycling", "sortere_ref": "131", "source": "Sortere.no", "recycling_type": "container", "recycling": ["Glass packaging", "Metal packaging", "Textiles, clothes and shoes"], "location": "Moa Circle K", "address": "Langelandsvegen 1, 6010 \u00c5lesund", "description": 0, "type": "returpunkt", "county": "M\u00f8re og Romsdal", "distance": 0, "bookmark": 0, "timetag": 0}, {"id": "S1050", "lat": "62.468100", "lon": "6.351430", "amenity": "recycling", "sortere_ref": "132", "source": "Sortere.no", "recycling_type": "container", "recycling": ["Glass packaging", "Metal packaging", "Textiles, clothes and shoes"], "location": "Moa Nord", "address": "Moavegen, 6010 \u00c5lesund", "description": "Ved sv\u00f8mmehall og kino", "type": "returpunkt", "county": "M\u00f8re og Romsdal", "distance": 0, "bookmark": 0, "timetag": 0}, {"id": "S1051", "lat": "62.468260", "lon": "6.290850", "amenity": "recycling", "sortere_ref": "133", "source": "Sortere.no", "recycling_type": "container", "recycling": ["Glass packaging", "Metal packaging", "Textiles, clothes and shoes"], "location": "Lerstad", "address": "Lerstadvegen 291, 6014 \u00c5lesund", "description": "ved Meny", "type": "returpunkt", "county": "M\u00f8re og Romsdal", "distance": 0, "bookmark": 0, "timetag": 0}, {"id": "S1052", "lat": "62.464530", "lon": "6.317670", "amenity": "recycling", "sortere_ref": "134", "source": "Sortere.no", "recycling_type": "container", "recycling": ["Glass packaging", "Metal packaging", "Textiles, clothes and shoes"], "location": "\u00c5se", "address": 0, "description": "\u00c5setorget, P-plass \u00f8st for butikken/", "type": "returpunkt", "county": "M\u00f8re og Romsdal", "distance": 0, "bookmark": 0, "timetag": 0}, {"id": "S1053", "lat": "62.472520", "lon": "6.241410", "amenity": "recycling", "sortere_ref": "135", "source": "Sortere.no", "recycling_type": "container", "recycling": 0, "location": "Larsg\u00e5rden", "address": "Larsg\u00e5rdsvegen 19, ", "description": "Ved Spar", "type": "returpunkt", "county": "M\u00f8re og Romsdal", "distance": 0, "bookmark": 0, "timetag": 0}, {"id": "S1054", "lat": "62.472225", "lon": "6.165049", "amenity": "recycling", "sortere_ref": "136", "source": "Sortere.no", "recycling_type": "container", "recycling": ["Glass packaging", "Metal packaging", "Textiles, clothes and shoes"], "location": "Utstillingsplassen", "address": "6003 \u00c5lesund", "description": "p\u00e5 Utstillingsplassen.", "type": "returpunkt", "county": "M\u00f8re og Romsdal", "distance": 0, "bookmark": 0, "timetag": 0}, {"id": "S1055", "lat": "62.466027", "lon": "6.248711", "amenity": "recycling", "sortere_ref": "137", "source": "Sortere.no", "recycling_type": "container", "recycling": ["Glass packaging", "Metal packaging", "Textiles, clothes and shoes"], "location": "G\u00e5seid", "address": "Nedre Klokkersundvegen 2, 6015 \u00c5lesund", "description": "ved Kiwi Klokkersund", "type": "returpunkt", "county": "M\u00f8re og Romsdal", "distance": 0, "bookmark": 0, "timetag": 0}, {"id": "S1056", "lat": "62.460040", "lon": "6.269430", "amenity": "recycling", "sortere_ref": "138", "source": "Sortere.no", "recycling_type": "container", "recycling": ["Glass packaging", "Metal packaging", "Textiles, clothes and shoes"], "location": "Hatlane", "address": "Hallvardgarden 36, 6016 \u00c5lesund", "description": "Ved Meny Hatlane", "type": "returpunkt", "county": "M\u00f8re og Romsdal", "distance": 0, "bookmark": 0, "timetag": 0}, {"id": "S1057", "lat": "62.490830", "lon": "6.190650", "amenity": "recycling", "sortere_ref": "139", "source": "Sortere.no", "recycling_type": "container", "recycling": ["Corrugated cardboard", "Beverage carton", "Packaging carton", "Glass packaging", "Metal packaging", "Paper", "Cardboard, paper and cardboard", "Plastic packaging", "Residual waste", "Textiles, clothes and shoes"], "location": "Hoffland, Ellings\u00f8y", "address": "6057 Ellings\u00f8y", "description": "ved Kvervesenteret", "type": "hyttepunkt", "county": "M\u00f8re og Romsdal", "distance": 0, "bookmark": 0, "timetag": 0}, {"id": "S1058", "lat": "62.504570", "lon": "6.395500", "amenity": "recycling", "sortere_ref": "140", "source": "Sortere.no", "recycling_type": "container", "recycling": ["Glass packaging", "Metal packaging", "Textiles, clothes and shoes"], "location": "Stokke, Ellings\u00f8y", "address": "R\u00f8ysethaugen 10, 6057 Ellings\u00f8y", "description": "Ved butikken", "type": "returpunkt", "county": "M\u00f8re og Romsdal", "distance": 0, "bookmark": 0, "timetag": 0}, {"id": "S1059", "lat": "62.738130", "lon": "7.192210", "amenity": "recycling", "sortere_ref": "143", "source": "Sortere.no", "recycling_type": "container", "recycling": ["Dangerous waste"], "location": "Molde brannstasjon", "address": "Birger Hatlebakks veg 30, 6415 ", "description": 0, "type": "farlig", "county": "M\u00f8re og Romsdal", "distance": 0, "bookmark": 0, "timetag": 0}, {"id": "S1060", "lat": "59.401361", "lon": "8.493954", "amenity": "recycling", "sortere_ref": "147", "source": "Sortere.no", "recycling_type": "container", "recycling": ["Dangerous waste"], "location": "Statoil Kviteseid Sentrum", "address": "Kviteseidgata, 3850 ", "description": 0, "type": "farlig", "county": "Telemark", "distance": 0, "bookmark": 0, "timetag": 0}, {"id": "S1061", "lat": "59.203189", "lon": "8.084358", "amenity": "recycling", "sortere_ref": "148", "source": "Sortere.no", "recycling_type": "container", "recycling": ["Dangerous waste"], "location": "Statoil Moland Auto Fyresdal", "address": "Riksveg 355, 3870 ", "description": 0, "type": "farlig", "county": "Telemark", "distance": 0, "bookmark": 0, "timetag": 0}, {"id": "S1062", "lat": "59.483941", "lon": "8.628364", "amenity": "recycling", "sortere_ref": "151", "source": "Sortere.no", "recycling_type": "container", "recycling": ["Dangerous waste"], "location": "Statoil Seljord", "address": "Br\u00f8l\u00f8svegen, 3840 ", "description": 0, "type": "farlig", "county": "Telemark", "distance": 0, "bookmark": 0, "timetag": 0}, {"id": "S1063", "lat": "59.570160", "lon": "7.988560", "amenity": "recycling", "sortere_ref": "152", "source": "Sortere.no", "recycling_type": "container", "recycling": ["Dangerous waste"], "location": "Esso \u00c5mot Sentrum", "address": 0, "description": "Milj\u00f8stasjon Farleg avfall", "type": "farlig", "county": "Telemark", "distance": 0, "bookmark": 0, "timetag": 0}, {"id": "S1064", "lat": "59.645449", "lon": "8.371949", "amenity": "recycling", "sortere_ref": "153", "source": "Sortere.no", "recycling_type": "container", "recycling": ["Dangerous waste", "Glass packaging", "Metal packaging", "Cardboard, paper and cardboard", "Textiles, clothes and shoes"], "location": "Gamle Groven Landhandel", "address": "\u00c5motsdalsvegen, 3841 ", "description": 0, "type": "farlig", "county": "Telemark", "distance": 0, "bookmark": 0, "timetag": 0}, {"id": "S1065", "lat": "59.230579", "lon": "6.154650", "amenity": "recycling", "sortere_ref": "158", "source": "Sortere.no", "recycling_type": "container", "recycling": ["Mixed plastic", "Plastic (not packaging)", "Plastic packaging", "Corrugated cardboard", "Beverage carton", "Paper", "Cardboard, paper and cardboard", "Glass packaging", "Metal packaging"], "location": "Pundsnes", "address": "4130 ", "description": 0, "type": "returpunkt", "county": "Rogaland", "distance": 0, "bookmark": 0, "timetag": 0}, {"id": "S1066", "lat": "59.150796", "lon": "6.167815", "amenity": "recycling", "sortere_ref": "160", "source": "Sortere.no", "recycling_type": "container", "recycling": ["Mixed plastic", "Plastic (not packaging)", "Plastic packaging", "Corrugated cardboard", "Beverage carton", "Paper", "Cardboard, paper and cardboard", "Glass packaging", "Metal packaging"], "location": "\u00c5rdal, v/meieribygget", "address": "4137 ", "description": 0, "type": "returpunkt", "county": "Rogaland", "distance": 0, "bookmark": 0, "timetag": 0}, {"id": "S1067", "lat": "59.253443", "lon": "6.368766", "amenity": "recycling", "sortere_ref": "165", "source": "Sortere.no", "recycling_type": "container", "recycling": ["Mixed plastic", "Plastic (not packaging)", "Plastic packaging", "Corrugated cardboard", "Beverage carton", "Paper", "Cardboard, paper and cardboard", "Glass packaging", "Metal packaging"], "location": "Vormedalen", "address": "Vormedalen, 4130 ", "description": 0, "type": "returpunkt", "county": "Rogaland", "distance": 0, "bookmark": 0, "timetag": 0}, {"id": "S1068", "lat": "58.934787", "lon": "6.040324", "amenity": "recycling", "sortere_ref": "185", "source": "Sortere.no", "recycling_type": "container", "recycling": ["Glass packaging", "Metal packaging"], "location": "Skjeivik", "address": 0, "description": 0, "type": "returpunkt", "county": "Rogaland", "distance": 0, "bookmark": 0, "timetag": 0}, {"id": "S1069", "lat": "59.016300", "lon": "6.323179", "amenity": "recycling", "sortere_ref": "186", "source": "Sortere.no", "recycling_type": "container", "recycling": ["Glass packaging", "Metal packaging"], "location": "Songesand", "address": 0, "description": 0, "type": "returpunkt", "county": "Rogaland", "distance": 0, "bookmark": 0, "timetag": 0}, {"id": "S1070", "lat": "59.071449", "lon": "6.023426", "amenity": "recycling", "sortere_ref": "200", "source": "Sortere.no", "recycling_type": "container", "recycling": ["Mixed plastic", "Plastic (not packaging)", "Plastic packaging", "Corrugated cardboard", "Beverage carton", "Paper", "Cardboard, paper and cardboard", "Glass packaging", "Metal packaging"], "location": "Bj\u00f8rheimsbygd, bedehuset", "address": 0, "description": 0, "type": "returpunkt", "county": "Rogaland", "distance": 0, "bookmark": 0, "timetag": 0}, {"id": "S1071", "lat": "59.116405", "lon": "6.006904", "amenity": "recycling", "sortere_ref": "201", "source": "Sortere.no", "recycling_type": "container", "recycling": ["Mixed plastic", "Plastic (not packaging)", "Plastic packaging", "Beverage carton", "Glass packaging", "Metal packaging"], "location": "Fisk\u00e5, bortfor bakeriet", "address": 0, "description": 0, "type": "returpunkt", "county": "Rogaland", "distance": 0, "bookmark": 0, "timetag": 0}, {"id": "S1072", "lat": "59.065795", "lon": "5.919865", "amenity": "recycling", "sortere_ref": "202", "source": "Sortere.no", "recycling_type": "container", "recycling": ["Mixed plastic", "Plastic (not packaging)", "Plastic packaging", "Corrugated cardboard", "Beverage carton", "Paper", "Cardboard, paper and cardboard", "Glass packaging", "Metal packaging"], "location": "Tau, bak TF-bygget", "address": 0, "description": 0, "type": "returpunkt", "county": "Rogaland", "distance": 0, "bookmark": 0, "timetag": 0}, {"id": "S1073", "lat": "59.033175", "lon": "5.942595", "amenity": "recycling", "sortere_ref": "203", "source": "Sortere.no", "recycling_type": "container", "recycling": ["Mixed plastic", "Plastic (not packaging)", "Plastic packaging", "Beverage carton", "Glass packaging", "Metal packaging"], "location": "Solbakk, i kryss til Heia", "address": 0, "description": 0, "type": "returpunkt", "county": "Rogaland", "distance": 0, "bookmark": 0, "timetag": 0}, {"id": "S1074", "lat": "59.023733", "lon": "6.039938", "amenity": "recycling", "sortere_ref": "205", "source": "Sortere.no", "recycling_type": "container", "recycling": ["Mixed plastic", "Plastic (not packaging)", "Plastic packaging", "Corrugated cardboard", "Beverage carton", "Paper", "Cardboard, paper and cardboard", "Glass packaging", "Metal packaging"], "location": "J\u00f8rpeland, bak Torghuset", "address": "4100 J\u00f8rpeland", "description": 0, "type": "returpunkt", "county": "Rogaland", "distance": 0, "bookmark": 0, "timetag": 0}, {"id": "S1075", "lat": "58.979231", "lon": "5.967792", "amenity": "recycling", "sortere_ref": "206", "source": "Sortere.no", "recycling_type": "container", "recycling": ["Mixed plastic", "Plastic (not packaging)", "Plastic packaging", "Corrugated cardboard", "Beverage carton", "Paper", "Cardboard, paper and cardboard", "Glass packaging", "Metal packaging"], "location": "Idse, kaien", "address": 0, "description": 0, "type": "returpunkt", "county": "Rogaland", "distance": 0, "bookmark": 0, "timetag": 0}, {"id": "S1076", "lat": "58.991155", "lon": "5.923412", "amenity": "recycling", "sortere_ref": "207", "source": "Sortere.no", "recycling_type": "container", "recycling": ["Mixed plastic", "Plastic (not packaging)", "Plastic packaging", "Beverage carton", "Glass packaging", "Metal packaging"], "location": "Idse, Storemyr nedre p-plass", "address": 0, "description": 0, "type": "returpunkt", "county": "Rogaland", "distance": 0, "bookmark": 0, "timetag": 0}, {"id": "S1077", "lat": "58.973087", "lon": "6.006517", "amenity": "recycling", "sortere_ref": "208", "source": "Sortere.no", "recycling_type": "container", "recycling": ["Corrugated cardboard", "Beverage carton", "Paper", "Cardboard, paper and cardboard", "Glass packaging", "Metal packaging"], "location": "Kvalv\u00e5g, vegkryss", "address": 0, "description": 0, "type": "returpunkt", "county": "Rogaland", "distance": 0, "bookmark": 0, "timetag": 0}, {"id": "S1078", "lat": "59.317210", "lon": "8.948790", "amenity": "recycling", "sortere_ref": "209", "source": "Sortere.no", "recycling_type": "container", "recycling": ["Beverage carton", "Paper"], "location": "Fl\u00e5bygd", "address": 0, "description": 0, "type": "returpunkt", "county": "Telemark", "distance": 0, "bookmark": 0, "timetag": 0}, {"id": "S1079", "lat": "60.168590", "lon": "10.257370", "amenity": "recycling", "sortere_ref": "221", "source": "Sortere.no", "recycling_type": "container", "recycling": ["Glass packaging", "Metal packaging"], "location": "Ringerike Stormarked", "address": 0, "description": 0, "type": "returpunkt", "county": "Buskerud", "distance": 0, "bookmark": 0, "timetag": 0}, {"id": "S1080", "lat": "59.018007", "lon": "6.042910", "amenity": "recycling", "sortere_ref": "231", "source": "Sortere.no", "recycling_type": "container", "recycling": ["Mixed plastic", "Plastic (not packaging)", "Plastic packaging", "Corrugated cardboard", "Beverage carton", "Paper", "Cardboard, paper and cardboard", "Glass packaging", "Metal packaging"], "location": "V\u00e5gen v/parkeringsplass", "address": 0, "description": 0, "type": "returpunkt", "county": "Rogaland", "distance": 0, "bookmark": 0, "timetag": 0}, {"id": "S1081", "lat": "60.240370", "lon": "10.388860", "amenity": "recycling", "sortere_ref": "240", "source": "Sortere.no", "recycling_type": "container", "recycling": ["Glass packaging", "Metal packaging"], "location": "Coop Mega, Jevnaker", "address": 0, "description": 0, "type": "returpunkt", "county": "Oppland", "distance": 0, "bookmark": 0, "timetag": 0}, {"id": "S1082", "lat": "58.901266", "lon": "6.107068", "amenity": "recycling", "sortere_ref": "266", "source": "Sortere.no", "recycling_type": "container", "recycling": ["Mixed plastic", "Plastic (not packaging)", "Plastic packaging", "Beverage carton", "Glass packaging", "Metal packaging"], "location": "Forsand", "address": "Fossanvegen, 4110 Forsand", "description": "Bergekrossen", "type": "returpunkt", "county": "Rogaland", "distance": 0, "bookmark": 0, "timetag": 0}, {"id": "S1083", "lat": "58.864683", "lon": "6.153545", "amenity": "recycling", "sortere_ref": "267", "source": "Sortere.no", "recycling_type": "container", "recycling": ["Mixed plastic", "Plastic (not packaging)", "Plastic packaging", "Beverage carton", "Glass packaging", "Metal packaging"], "location": "Helle", "address": 0, "description": 0, "type": "returpunkt", "county": "Rogaland", "distance": 0, "bookmark": 0, "timetag": 0}, {"id": "S1084", "lat": "59.057903", "lon": "6.660397", "amenity": "recycling", "sortere_ref": "268", "source": "Sortere.no", "recycling_type": "container", "recycling": ["Mixed plastic", "Plastic (not packaging)", "Plastic packaging", "Corrugated cardboard", "Beverage carton", "Paper", "Cardboard, paper and cardboard", "Glass packaging", "Metal packaging"], "location": "Lysebotn", "address": 0, "description": 0, "type": "returpunkt", "county": "Rogaland", "distance": 0, "bookmark": 0, "timetag": 0}, {"id": "S1085", "lat": "59.487838", "lon": "6.490209", "amenity": "recycling", "sortere_ref": "273", "source": "Sortere.no", "recycling_type": "container", "recycling": ["Mixed plastic", "Plastic (not packaging)", "Plastic packaging", "Corrugated cardboard", "Beverage carton", "Paper", "Cardboard, paper and cardboard", "Glass packaging", "Metal packaging"], "location": "Suldalsosen v/brannstasjonen i Prestavikjo", "address": 0, "description": 0, "type": "returpunkt", "county": "Rogaland", "distance": 0, "bookmark": 0, "timetag": 0}, {"id": "S1086", "lat": "59.348355", "lon": "6.238389", "amenity": "recycling", "sortere_ref": "274", "source": "Sortere.no", "recycling_type": "container", "recycling": ["Mixed plastic", "Plastic (not packaging)", "Plastic packaging", "Corrugated cardboard", "Beverage carton", "Paper", "Cardboard, paper and cardboard", "Glass packaging", "Metal packaging"], "location": "Erfjord -H\u00e5landsosen", "address": 0, "description": 0, "type": "returpunkt", "county": "Rogaland", "distance": 0, "bookmark": 0, "timetag": 0}, {"id": "S1087", "lat": "59.410489", "lon": "6.018384", "amenity": "recycling", "sortere_ref": "275", "source": "Sortere.no", "recycling_type": "container", "recycling": ["Mixed plastic", "Plastic (not packaging)", "Plastic packaging", "Corrugated cardboard", "Beverage carton", "Paper", "Cardboard, paper and cardboard", "Electrical and electronic waste", "Glass packaging", "Metal packaging"], "location": "Vatlandsv\u00e5g v/butikken", "address": 0, "description": 0, "type": "returpunkt", "county": "Rogaland", "distance": 0, "bookmark": 0, "timetag": 0}, {"id": "S1088", "lat": "59.341320", "lon": "6.021602", "amenity": "recycling", "sortere_ref": "276", "source": "Sortere.no", "recycling_type": "container", "recycling": ["Mixed plastic", "Plastic (not packaging)", "Plastic packaging", "Corrugated cardboard", "Beverage carton", "Paper", "Cardboard, paper and cardboard", "Glass packaging", "Metal packaging"], "location": "Jelsa v/bensinstasjonen", "address": 0, "description": 0, "type": "returpunkt", "county": "Rogaland", "distance": 0, "bookmark": 0, "timetag": 0}, {"id": "S1089", "lat": "59.341544", "lon": "6.102304", "amenity": "recycling", "sortere_ref": "277", "source": "Sortere.no", "recycling_type": "container", "recycling": ["Mixed plastic", "Plastic (not packaging)", "Plastic packaging", "Corrugated cardboard", "Beverage carton", "Paper", "Cardboard, paper and cardboard", "Glass packaging", "Metal packaging"], "location": "Foreneset, t\u00f8mmerlagringsplass", "address": 0, "description": 0, "type": "returpunkt", "county": "Rogaland", "distance": 0, "bookmark": 0, "timetag": 0}, {"id": "S1090", "lat": "59.421319", "lon": "6.450391", "amenity": "recycling", "sortere_ref": "280", "source": "Sortere.no", "recycling_type": "container", "recycling": ["Mixed plastic", "Plastic (not packaging)", "Plastic packaging", "Beverage carton", "Glass packaging", "Metal packaging"], "location": "Gullingen v/Mosvatnet", "address": 0, "description": 0, "type": "returpunkt", "county": "Rogaland", "distance": 0, "bookmark": 0, "timetag": 0}, {"id": "S1091", "lat": "59.548350", "lon": "6.340141", "amenity": "recycling", "sortere_ref": "281", "source": "Sortere.no", "recycling_type": "container", "recycling": ["Mixed plastic", "Plastic (not packaging)", "Plastic packaging", "Beverage carton", "Glass packaging", "Metal packaging"], "location": "Vanvik milj\u00f8stasjon", "address": 0, "description": 0, "type": "returpunkt", "county": "Rogaland", "distance": 0, "bookmark": 0, "timetag": 0}, {"id": "S1092", "lat": "59.485118", "lon": "6.213863", "amenity": "recycling", "sortere_ref": "282", "source": "Sortere.no", "recycling_type": "container", "recycling": ["Mixed plastic", "Plastic (not packaging)", "Plastic packaging", "Beverage carton", "Glass packaging", "Metal packaging"], "location": "Ropeid v/ferjekaien", "address": 0, "description": 0, "type": "returpunkt", "county": "Rogaland", "distance": 0, "bookmark": 0, "timetag": 0}, {"id": "S1093", "lat": "59.410625", "lon": "6.082971", "amenity": "recycling", "sortere_ref": "283", "source": "Sortere.no", "recycling_type": "container", "recycling": ["Mixed plastic", "Plastic (not packaging)", "Plastic packaging", "Beverage carton", "Glass packaging", "Metal packaging"], "location": "Marvik v/butikken", "address": 0, "description": 0, "type": "returpunkt", "county": "Rogaland", "distance": 0, "bookmark": 0, "timetag": 0}, {"id": "S1094", "lat": "59.645876", "lon": "6.800838", "amenity": "recycling", "sortere_ref": "284", "source": "Sortere.no", "recycling_type": "container", "recycling": ["Mixed plastic", "Plastic (not packaging)", "Plastic packaging", "Beverage carton", "Glass packaging", "Metal packaging"], "location": "Nesflaten v/butikken", "address": 0, "description": 0, "type": "returpunkt", "county": "Rogaland", "distance": 0, "bookmark": 0, "timetag": 0}, {"id": "S1095", "lat": "59.340456", "lon": "6.218820", "amenity": "recycling", "sortere_ref": "287", "source": "Sortere.no", "recycling_type": "container", "recycling": ["Mixed plastic", "Plastic (not packaging)", "Plastic packaging", "Corrugated cardboard", "Beverage carton", "Paper", "Cardboard, paper and cardboard", "Glass packaging", "Metal packaging"], "location": "Er\u00f8y v/industrifelt", "address": 0, "description": 0, "type": "returpunkt", "county": "Rogaland", "distance": 0, "bookmark": 0, "timetag": 0}, {"id": "S1096", "lat": "59.230601", "lon": "6.154704", "amenity": "recycling", "sortere_ref": "309", "source": "Sortere.no", "recycling_type": "container", "recycling": ["Mixed plastic", "Plastic (not packaging)", "Plastic packaging", "Corrugated cardboard", "Beverage carton", "Paper", "Cardboard, paper and cardboard", "Glass packaging", "Metal packaging"], "location": "Hjelmeland, Pundsnes", "address": 0, "description": 0, "type": "returpunkt", "county": "Rogaland", "distance": 0, "bookmark": 0, "timetag": 0}, {"id": "S1097", "lat": "59.177377", "lon": "6.068541", "amenity": "recycling", "sortere_ref": "310", "source": "Sortere.no", "recycling_type": "container", "recycling": ["Mixed plastic", "Plastic (not packaging)", "Plastic packaging", "Corrugated cardboard", "Beverage carton", "Paper", "Cardboard, paper and cardboard", "Glass packaging", "Metal packaging"], "location": "Fister, campingplass", "address": 0, "description": 0, "type": "returpunkt", "county": "Rogaland", "distance": 0, "bookmark": 0, "timetag": 0}, {"id": "S1098", "lat": "59.182426", "lon": "5.997248", "amenity": "recycling", "sortere_ref": "318", "source": "Sortere.no", "recycling_type": "container", "recycling": ["Mixed plastic", "Plastic (not packaging)", "Plastic packaging", "Corrugated cardboard", "Beverage carton", "Paper", "Cardboard, paper and cardboard", "Glass packaging", "Metal packaging"], "location": "B\u00f8r\u00f8y, \u00f8vre p-plass", "address": 0, "description": 0, "type": "returpunkt", "county": "Rogaland", "distance": 0, "bookmark": 0, "timetag": 0}, {"id": "S1099", "lat": "59.150503", "lon": "6.175453", "amenity": "recycling", "sortere_ref": "324", "source": "Sortere.no", "recycling_type": "container", "recycling": ["Electrical and electronic waste"], "location": "GEA \u00c5rdal", "address": 0, "description": 0, "type": "returpunkt", "county": "Rogaland", "distance": 0, "bookmark": 0, "timetag": 0}, {"id": "S1100", "lat": "59.645784", "lon": "6.801395", "amenity": "recycling", "sortere_ref": "326", "source": "Sortere.no", "recycling_type": "container", "recycling": ["Electrical and electronic waste"], "location": "Nesflaten Daglegvare", "address": 0, "description": 0, "type": "returpunkt", "county": "Rogaland", "distance": 0, "bookmark": 0, "timetag": 0}, {"id": "S1101", "lat": "59.347545", "lon": "6.238174", "amenity": "recycling", "sortere_ref": "327", "source": "Sortere.no", "recycling_type": "container", "recycling": ["Electrical and electronic waste"], "location": "Vaages Landhandel", "address": 0, "description": 0, "type": "returpunkt", "county": "Rogaland", "distance": 0, "bookmark": 0, "timetag": 0}, {"id": "S1102", "lat": "59.020978", "lon": "6.036944", "amenity": "recycling", "sortere_ref": "333", "source": "Sortere.no", "recycling_type": "container", "recycling": ["Electrical and electronic waste"], "location": "Statoil Service Senter, J\u00f8rpeland", "address": 0, "description": 0, "type": "returpunkt", "county": "Rogaland", "distance": 0, "bookmark": 0, "timetag": 0}, {"id": "S1103", "lat": "59.065250", "lon": "5.915473", "amenity": "recycling", "sortere_ref": "334", "source": "Sortere.no", "recycling_type": "container", "recycling": ["Electrical and electronic waste"], "location": "Statoil Service Senter, Tau", "address": 0, "description": 0, "type": "returpunkt", "county": "Rogaland", "distance": 0, "bookmark": 0, "timetag": 0}, {"id": "S1104", "lat": "59.026246", "lon": "6.035056", "amenity": "recycling", "sortere_ref": "335", "source": "Sortere.no", "recycling_type": "container", "recycling": ["Electrical and electronic waste"], "location": "Esso Stasjon, J\u00f8rpeland", "address": 0, "description": 0, "type": "returpunkt", "county": "Rogaland", "distance": 0, "bookmark": 0, "timetag": 0}, {"id": "S1105", "lat": "59.483235", "lon": "6.255319", "amenity": "recycling", "sortere_ref": "336", "source": "Sortere.no", "recycling_type": "container", "recycling": ["Mixed plastic", "Plastic (not packaging)", "Plastic packaging", "Beverage carton", "Glass packaging", "Metal packaging"], "location": "Sand, p-plass v/kulturhuset", "address": "parkeringsplass v/kulturhuset, 4230 ", "description": 0, "type": "returpunkt", "county": "Rogaland", "distance": 0, "bookmark": 0, "timetag": 0}, {"id": "S1106", "lat": "59.963738", "lon": "10.347531", "amenity": "recycling", "sortere_ref": "343", "source": "Sortere.no", "recycling_type": "container", "recycling": ["Glass packaging", "Metal packaging"], "location": "Sollih\u00f8gda", "address": 0, "description": "Returpunkt er p\u00e5 parkeringsplass ved Sollih\u00f8gda barnehage.", "type": "returpunkt", "county": "Buskerud", "distance": 0, "bookmark": 0, "timetag": 0}, {"id": "S1107", "lat": "60.086941", "lon": "10.099512", "amenity": "recycling", "sortere_ref": "349", "source": "Sortere.no", "recycling_type": "container", "recycling": ["Glass packaging", "Metal packaging"], "location": "Coop Tyristrand", "address": 0, "description": "P\u00e5 parkeringsplass utenfor Coop Prix p\u00e5 Tyristrand.", "type": "returpunkt", "county": "Buskerud", "distance": 0, "bookmark": 0, "timetag": 0}, {"id": "S1108", "lat": "60.061098", "lon": "10.308564", "amenity": "recycling", "sortere_ref": "356", "source": "Sortere.no", "recycling_type": "container", "recycling": ["Glass packaging", "Metal packaging"], "location": "Spar Sundvollen", "address": 0, "description": "P\u00e5 pendlerparkering", "type": "returpunkt", "county": "Buskerud", "distance": 0, "bookmark": 0, "timetag": 0}, {"id": "S1109", "lat": "60.153170", "lon": "10.254110", "amenity": "recycling", "sortere_ref": "360", "source": "Sortere.no", "recycling_type": "container", "recycling": ["Glass packaging", "Metal packaging"], "location": "Meny Osloveien", "address": 0, "description": 0, "type": "returpunkt", "county": "Buskerud", "distance": 0, "bookmark": 0, "timetag": 0}, {"id": "S1110", "lat": "60.178110", "lon": "10.269640", "amenity": "recycling", "sortere_ref": "361", "source": "Sortere.no", "recycling_type": "container", "recycling": ["Glass packaging", "Metal packaging"], "location": "Coop Mega, H\u00f8nengaten", "address": 0, "description": 0, "type": "returpunkt", "county": "Buskerud", "distance": 0, "bookmark": 0, "timetag": 0}, {"id": "S1111", "lat": "60.177590", "lon": "10.204500", "amenity": "recycling", "sortere_ref": "362", "source": "Sortere.no", "recycling_type": "container", "recycling": ["Glass packaging", "Metal packaging"], "location": "Coop Prix, Heradsbygda", "address": 0, "description": 0, "type": "returpunkt", "county": "Buskerud", "distance": 0, "bookmark": 0, "timetag": 0}, {"id": "S1112", "lat": "59.476380", "lon": "8.418530", "amenity": "recycling", "sortere_ref": "363", "source": "Sortere.no", "recycling_type": "container", "recycling": ["Glass packaging", "Metal packaging", "Cardboard, paper and cardboard", "Textiles, clothes and shoes"], "location": "Morgedal Renseanlegg", "address": "Morgedalsvegen, 3848 Morgedal", "description": 0, "type": "hyttepunkt", "county": "Telemark", "distance": 0, "bookmark": 0, "timetag": 0}, {"id": "S1113", "lat": "60.271280", "lon": "10.187070", "amenity": "recycling", "sortere_ref": "364", "source": "Sortere.no", "recycling_type": "container", "recycling": ["Glass packaging", "Metal packaging"], "location": "Coop, Hallingby", "address": 0, "description": 0, "type": "returpunkt", "county": "Buskerud", "distance": 0, "bookmark": 0, "timetag": 0}, {"id": "S1114", "lat": "60.239818", "lon": "9.924600", "amenity": "recycling", "sortere_ref": "365", "source": "Sortere.no", "recycling_type": "container", "recycling": ["Glass packaging", "Metal packaging"], "location": "Kiwi, Sokna", "address": 0, "description": 0, "type": "returpunkt", "county": "Buskerud", "distance": 0, "bookmark": 0, "timetag": 0}, {"id": "S1115", "lat": "60.171790", "lon": "10.319510", "amenity": "recycling", "sortere_ref": "367", "source": "Sortere.no", "recycling_type": "container", "recycling": ["Glass packaging", "Metal packaging"], "location": "Rimi, Haug", "address": 0, "description": 0, "type": "returpunkt", "county": "Buskerud", "distance": 0, "bookmark": 0, "timetag": 0}, {"id": "S1116", "lat": "60.153770", "lon": "10.250330", "amenity": "recycling", "sortere_ref": "368", "source": "Sortere.no", "recycling_type": "container", "recycling": ["Glass packaging", "Metal packaging"], "location": "REMA 1000, Eikli", "address": 0, "description": 0, "type": "returpunkt", "county": "Buskerud", "distance": 0, "bookmark": 0, "timetag": 0}, {"id": "S1117", "lat": "60.170612", "lon": "10.390877", "amenity": "recycling", "sortere_ref": "370", "source": "Sortere.no", "recycling_type": "container", "recycling": ["Glass packaging", "Metal packaging"], "location": "Ringkollen parkeringsplass", "address": 0, "description": 0, "type": "returpunkt", "county": "Buskerud", "distance": 0, "bookmark": 0, "timetag": 0}, {"id": "S1118", "lat": "60.302250", "lon": "10.584550", "amenity": "recycling", "sortere_ref": "374", "source": "Sortere.no", "recycling_type": "container", "recycling": ["Glass packaging", "Metal packaging"], "location": "Spar, Lunner", "address": 0, "description": 0, "type": "returpunkt", "county": "Oppland", "distance": 0, "bookmark": 0, "timetag": 0}, {"id": "S1119", "lat": "60.357512", "lon": "10.572628", "amenity": "recycling", "sortere_ref": "384", "source": "Sortere.no", "recycling_type": "container", "recycling": ["Glass packaging", "Metal packaging"], "location": "Gran sentrum", "address": 0, "description": "Ved p-plass bak G-sport Gran", "type": "returpunkt", "county": "Oppland", "distance": 0, "bookmark": 0, "timetag": 0}, {"id": "S1120", "lat": "60.340920", "lon": "10.407400", "amenity": "recycling", "sortere_ref": "387", "source": "Sortere.no", "recycling_type": "container", "recycling": ["Glass packaging", "Metal packaging"], "location": "Grymyr, Rojankrysset", "address": 0, "description": 0, "type": "returpunkt", "county": "Oppland", "distance": 0, "bookmark": 0, "timetag": 0}, {"id": "S1121", "lat": "60.256910", "lon": "10.661200", "amenity": "recycling", "sortere_ref": "389", "source": "Sortere.no", "recycling_type": "container", "recycling": ["Glass packaging", "Metal packaging"], "location": "KIWI, Grua", "address": 0, "description": 0, "type": "returpunkt", "county": "Oppland", "distance": 0, "bookmark": 0, "timetag": 0}, {"id": "S1122", "lat": "60.202360", "lon": "10.715530", "amenity": "recycling", "sortere_ref": "390", "source": "Sortere.no", "recycling_type": "container", "recycling": ["Glass packaging", "Metal packaging"], "location": "KIWI, Harestua", "address": 0, "description": 0, "type": "returpunkt", "county": "Oppland", "distance": 0, "bookmark": 0, "timetag": 0}, {"id": "S1123", "lat": "60.296940", "lon": "10.487050", "amenity": "recycling", "sortere_ref": "391", "source": "Sortere.no", "recycling_type": "container", "recycling": ["Glass packaging", "Metal packaging"], "location": "Grindvoll", "address": 0, "description": 0, "type": "returpunkt", "county": "Oppland", "distance": 0, "bookmark": 0, "timetag": 0}, {"id": "S1124", "lat": "60.482140", "lon": "11.158330", "amenity": "recycling", "sortere_ref": "412", "source": "Sortere.no", "recycling_type": "container", "recycling": ["Glass packaging", "Metal packaging"], "location": "COOP S-Marked Feiring", "address": "2093 FEIRING", "description": 0, "type": "returpunkt", "county": "Akershus", "distance": 0, "bookmark": 0, "timetag": 0}, {"id": "S1125", "lat": "58.966440", "lon": "5.729520", "amenity": "recycling", "sortere_ref": "419", "source": "Sortere.no", "recycling_type": "container", "recycling": ["Glass packaging", "Metal packaging"], "location": "St. Olav, sentrum", "address": 0, "description": 0, "type": "returpunkt", "county": "Rogaland", "distance": 0, "bookmark": 0, "timetag": 0}, {"id": "S1126", "lat": "58.963710", "lon": "5.701860", "amenity": "recycling", "sortere_ref": "421", "source": "Sortere.no", "recycling_type": "container", "recycling": ["Glass packaging", "Metal packaging"], "location": "Helg\u00f8 Mat Stokka", "address": "Erika Nissens vei, ", "description": 0, "type": "returpunkt", "county": "Rogaland", "distance": 0, "bookmark": 0, "timetag": 0}, {"id": "S1127", "lat": "58.957780", "lon": "5.689030", "amenity": "recycling", "sortere_ref": "422", "source": "Sortere.no", "recycling_type": "container", "recycling": ["Glass packaging", "Metal packaging"], "location": "Lassa, Sandal", "address": 0, "description": 0, "type": "returpunkt", "county": "Rogaland", "distance": 0, "bookmark": 0, "timetag": 0}, {"id": "S1128", "lat": "58.965520", "lon": "5.713640", "amenity": "recycling", "sortere_ref": "423", "source": "Sortere.no", "recycling_type": "container", "recycling": ["Glass packaging", "Metal packaging"], "location": "P-plass, Stavanger stadion", "address": 0, "description": 0, "type": "returpunkt", "county": "Rogaland", "distance": 0, "bookmark": 0, "timetag": 0}, {"id": "S1129", "lat": "58.962770", "lon": "5.730400", "amenity": "recycling", "sortere_ref": "424", "source": "Sortere.no", "recycling_type": "container", "recycling": ["Glass packaging", "Metal packaging"], "location": "Coop Prix Storgata, V\u00e5land", "address": 0, "description": 0, "type": "returpunkt", "county": "Rogaland", "distance": 0, "bookmark": 0, "timetag": 0}, {"id": "S1130", "lat": "58.965510", "lon": "5.727610", "amenity": "recycling", "sortere_ref": "427", "source": "Sortere.no", "recycling_type": "container", "recycling": ["Glass packaging", "Metal packaging"], "location": "Coop Extra, Kannik", "address": 0, "description": 0, "type": "returpunkt", "county": "Rogaland", "distance": 0, "bookmark": 0, "timetag": 0}, {"id": "S1131", "lat": "58.977620", "lon": "5.698540", "amenity": "recycling", "sortere_ref": "428", "source": "Sortere.no", "recycling_type": "container", "recycling": ["Glass packaging", "Metal packaging"], "location": "Prestveien, Tasta", "address": 0, "description": 0, "type": "returpunkt", "county": "Rogaland", "distance": 0, "bookmark": 0, "timetag": 0}, {"id": "S1132", "lat": "58.983140", "lon": "5.684760", "amenity": "recycling", "sortere_ref": "430", "source": "Sortere.no", "recycling_type": "container", "recycling": ["Glass packaging", "Metal packaging"], "location": "Rema 1000, Randabergveien", "address": 0, "description": 0, "type": "returpunkt", "county": "Rogaland", "distance": 0, "bookmark": 0, "timetag": 0}, {"id": "S1133", "lat": "58.989506", "lon": "5.683097", "amenity": "recycling", "sortere_ref": "431", "source": "Sortere.no", "recycling_type": "container", "recycling": ["Glass packaging", "Metal packaging"], "location": "Tein\u00e5 skole", "address": 0, "description": 0, "type": "returpunkt", "county": "Rogaland", "distance": 0, "bookmark": 0, "timetag": 0}, {"id": "S1134", "lat": "58.943380", "lon": "5.689790", "amenity": "recycling", "sortere_ref": "433", "source": "Sortere.no", "recycling_type": "container", "recycling": ["Glass packaging", "Metal packaging"], "location": "Coop Prix Madlamark", "address": 0, "description": 0, "type": "returpunkt", "county": "Rogaland", "distance": 0, "bookmark": 0, "timetag": 0}, {"id": "S1135", "lat": "58.939350", "lon": "5.688020", "amenity": "recycling", "sortere_ref": "434", "source": "Sortere.no", "recycling_type": "container", "recycling": ["Glass packaging", "Metal packaging"], "location": "Kiwi, Gosen", "address": 0, "description": 0, "type": "returpunkt", "county": "Rogaland", "distance": 0, "bookmark": 0, "timetag": 0}, {"id": "S1136", "lat": "58.951890", "lon": "5.677610", "amenity": "recycling", "sortere_ref": "435", "source": "Sortere.no", "recycling_type": "container", "recycling": ["Glass packaging", "Metal packaging"], "location": "Madla Amfi", "address": 0, "description": 0, "type": "returpunkt", "county": "Rogaland", "distance": 0, "bookmark": 0, "timetag": 0}, {"id": "S1137", "lat": "58.951850", "lon": "5.655810", "amenity": "recycling", "sortere_ref": "436", "source": "Sortere.no", "recycling_type": "container", "recycling": ["Glass packaging", "Metal packaging"], "location": "Rimi Stormarked, Revheimsveien", "address": 0, "description": 0, "type": "returpunkt", "county": "Rogaland", "distance": 0, "bookmark": 0, "timetag": 0}, {"id": "S1138", "lat": "58.965460", "lon": "5.611820", "amenity": "recycling", "sortere_ref": "438", "source": "Sortere.no", "recycling_type": "container", "recycling": ["Glass packaging", "Metal packaging"], "location": "Rema 1000, Mjugh\u00f8yden", "address": 0, "description": 0, "type": "returpunkt", "county": "Rogaland", "distance": 0, "bookmark": 0, "timetag": 0}, {"id": "S1139", "lat": "58.895290", "lon": "5.703750", "amenity": "recycling", "sortere_ref": "440", "source": "Sortere.no", "recycling_type": "container", "recycling": ["Glass packaging", "Metal packaging"], "location": "Rema Stormarked, Forus", "address": 0, "description": 0, "type": "returpunkt", "county": "Rogaland", "distance": 0, "bookmark": 0, "timetag": 0}, {"id": "S1140", "lat": "59.737630", "lon": "7.570780", "amenity": "recycling", "sortere_ref": "459", "source": "Sortere.no", "recycling_type": "container", "recycling": ["Glass packaging", "Metal packaging", "Cardboard, paper and cardboard", "Textiles, clothes and shoes"], "location": "Haukeli industriomr\u00e5de", "address": "Haukeli, 3895 ", "description": 0, "type": "hyttepunkt", "county": "Telemark", "distance": 0, "bookmark": 0, "timetag": 0}, {"id": "S1141", "lat": "59.594150", "lon": "7.408910", "amenity": "recycling", "sortere_ref": "460", "source": "Sortere.no", "recycling_type": "container", "recycling": ["Glass packaging", "Metal packaging", "Cardboard, paper and cardboard", "Textiles, clothes and shoes"], "location": "Stokktj\u00f8nn Bykleheii", "address": "Haukeli, 3895 ", "description": 0, "type": "hyttepunkt", "county": "Telemark", "distance": 0, "bookmark": 0, "timetag": 0}, {"id": "S1142", "lat": "60.400830", "lon": "11.239660", "amenity": "recycling", "sortere_ref": "468", "source": "Sortere.no", "recycling_type": "container", "recycling": ["Glass packaging", "Metal packaging", "Textiles, clothes and shoes"], "location": "KIWI Minnesund", "address": "2092 MINNESUND", "description": "Returpunkt st\u00e5r sammen med UFF-container.", "type": "returpunkt", "county": "Akershus", "distance": 0, "bookmark": 0, "timetag": 0}, {"id": "S1143", "lat": "60.328050", "lon": "11.259630", "amenity": "recycling", "sortere_ref": "470", "source": "Sortere.no", "recycling_type": "container", "recycling": ["Glass packaging", "Metal packaging", "Textiles, clothes and shoes"], "location": "Rema 1000 Eidsvoll", "address": "2080 EIDSVOLL", "description": 0, "type": "returpunkt", "county": "Akershus", "distance": 0, "bookmark": 0, "timetag": 0}, {"id": "S1144", "lat": "60.333360", "lon": "11.324500", "amenity": "recycling", "sortere_ref": "472", "source": "Sortere.no", "recycling_type": "container", "recycling": ["Glass packaging", "Metal packaging"], "location": "Gullverket J\u00f8nsj\u00f8en Eidsvoll", "address": "2080 EIDSVOLL", "description": 0, "type": "returpunkt", "county": "Akershus", "distance": 0, "bookmark": 0, "timetag": 0}, {"id": "S1145", "lat": "60.330210", "lon": "11.213040", "amenity": "recycling", "sortere_ref": "474", "source": "Sortere.no", "recycling_type": "container", "recycling": ["Glass packaging", "Metal packaging", "Textiles, clothes and shoes"], "location": "COOP Hammer\u00e5s - Eidsvoll", "address": "2080 EIDSVOLL", "description": "Returpunkt st\u00e5r sammen med UFF-container.", "type": "returpunkt", "county": "Akershus", "distance": 0, "bookmark": 0, "timetag": 0}, {"id": "S1146", "lat": "60.330560", "lon": "11.266880", "amenity": "recycling", "sortere_ref": "477", "source": "Sortere.no", "recycling_type": "container", "recycling": ["Glass packaging", "Metal packaging", "Textiles, clothes and shoes"], "location": "COOP Prix Eidsvoll", "address": "2080 EIDSVOLL", "description": 0, "type": "returpunkt", "county": "Akershus", "distance": 0, "bookmark": 0, "timetag": 0}, {"id": "S1147", "lat": "60.291290", "lon": "11.198260", "amenity": "recycling", "sortere_ref": "478", "source": "Sortere.no", "recycling_type": "container", "recycling": ["Glass packaging", "Metal packaging"], "location": "Nyg\u00e5rdskrysset B\u00f8n", "address": "2073 B\u00d8N", "description": 0, "type": "returpunkt", "county": "Akershus", "distance": 0, "bookmark": 0, "timetag": 0}, {"id": "S1148", "lat": "60.248610", "lon": "11.207270", "amenity": "recycling", "sortere_ref": "482", "source": "Sortere.no", "recycling_type": "container", "recycling": ["Glass packaging", "Metal packaging"], "location": "COOP Dal - Eidsvoll", "address": "2072 DAL", "description": 0, "type": "returpunkt", "county": "Akershus", "distance": 0, "bookmark": 0, "timetag": 0}, {"id": "S1149", "lat": "60.258120", "lon": "11.185930", "amenity": "recycling", "sortere_ref": "483", "source": "Sortere.no", "recycling_type": "container", "recycling": ["Glass packaging", "Metal packaging"], "location": "KIWI Dal - Eidsvoll", "address": "2072 DAL", "description": 0, "type": "returpunkt", "county": "Akershus", "distance": 0, "bookmark": 0, "timetag": 0}, {"id": "S1150", "lat": "58.893230", "lon": "5.705940", "amenity": "recycling", "sortere_ref": "484", "source": "Sortere.no", "recycling_type": "container", "recycling": ["Glass packaging", "Metal packaging"], "location": "Renovasjonen, Svanholmen 3, Forus", "address": 0, "description": 0, "type": "returpunkt", "county": "Rogaland", "distance": 0, "bookmark": 0, "timetag": 0}, {"id": "S1151", "lat": "58.891620", "lon": "5.732910", "amenity": "recycling", "sortere_ref": "485", "source": "Sortere.no", "recycling_type": "container", "recycling": ["Glass packaging", "Metal packaging"], "location": "Shell, Forusbeen 20", "address": 0, "description": 0, "type": "returpunkt", "county": "Rogaland", "distance": 0, "bookmark": 0, "timetag": 0}, {"id": "S1152", "lat": "58.895730", "lon": "5.724050", "amenity": "recycling", "sortere_ref": "486", "source": "Sortere.no", "recycling_type": "container", "recycling": ["Glass packaging", "Metal packaging"], "location": "Rema Storaberget, Kviebakken", "address": 0, "description": 0, "type": "returpunkt", "county": "Rogaland", "distance": 0, "bookmark": 0, "timetag": 0}, {"id": "S1153", "lat": "58.905360", "lon": "5.732600", "amenity": "recycling", "sortere_ref": "488", "source": "Sortere.no", "recycling_type": "container", "recycling": ["Glass packaging", "Metal packaging"], "location": "Coop Mega, Gausel", "address": 0, "description": 0, "type": "returpunkt", "county": "Rogaland", "distance": 0, "bookmark": 0, "timetag": 0}, {"id": "S1154", "lat": "58.918280", "lon": "5.723890", "amenity": "recycling", "sortere_ref": "489", "source": "Sortere.no", "recycling_type": "container", "recycling": ["Glass packaging", "Metal packaging"], "location": "Hinna skole", "address": 0, "description": 0, "type": "returpunkt", "county": "Rogaland", "distance": 0, "bookmark": 0, "timetag": 0}, {"id": "S1155", "lat": "58.915927", "lon": "5.740940", "amenity": "recycling", "sortere_ref": "490", "source": "Sortere.no", "recycling_type": "container", "recycling": ["Glass packaging", "Metal packaging"], "location": "J\u00e5tt\u00e5v\u00e5gen, Laberghagen", "address": 0, "description": 0, "type": "returpunkt", "county": "Rogaland", "distance": 0, "bookmark": 0, "timetag": 0}, {"id": "S1156", "lat": "58.947260", "lon": "5.741830", "amenity": "recycling", "sortere_ref": "495", "source": "Sortere.no", "recycling_type": "container", "recycling": ["Glass packaging", "Metal packaging"], "location": "Rema 1000, Bispeladeg\u00e5rd", "address": 0, "description": 0, "type": "returpunkt", "county": "Rogaland", "distance": 0, "bookmark": 0, "timetag": 0}, {"id": "S1157", "lat": "58.950890", "lon": "5.725660", "amenity": "recycling", "sortere_ref": "496", "source": "Sortere.no", "recycling_type": "container", "recycling": ["Glass packaging", "Metal packaging"], "location": "Bekkefaret bydelshus", "address": 0, "description": 0, "type": "returpunkt", "county": "Rogaland", "distance": 0, "bookmark": 0, "timetag": 0}, {"id": "S1158", "lat": "58.942640", "lon": "5.741890", "amenity": "recycling", "sortere_ref": "497", "source": "Sortere.no", "recycling_type": "container", "recycling": ["Glass packaging", "Metal packaging"], "location": "\u00d8vre Sandvikveien", "address": 0, "description": 0, "type": "returpunkt", "county": "Rogaland", "distance": 0, "bookmark": 0, "timetag": 0}, {"id": "S1159", "lat": "58.946480", "lon": "5.719090", "amenity": "recycling", "sortere_ref": "498", "source": "Sortere.no", "recycling_type": "container", "recycling": ["Glass packaging", "Metal packaging"], "location": "Saxemarka", "address": 0, "description": 0, "type": "returpunkt", "county": "Rogaland", "distance": 0, "bookmark": 0, "timetag": 0}, {"id": "S1160", "lat": "58.948110", "lon": "5.720700", "amenity": "recycling", "sortere_ref": "499", "source": "Sortere.no", "recycling_type": "container", "recycling": ["Glass packaging", "Metal packaging"], "location": "Coop Prix, Saxemarka", "address": 0, "description": 0, "type": "returpunkt", "county": "Rogaland", "distance": 0, "bookmark": 0, "timetag": 0}, {"id": "S1161", "lat": "58.950250", "lon": "5.697110", "amenity": "recycling", "sortere_ref": "500", "source": "Sortere.no", "recycling_type": "container", "recycling": ["Glass packaging", "Metal packaging"], "location": "P-plass Tjensvolltorget", "address": 0, "description": 0, "type": "returpunkt", "county": "Rogaland", "distance": 0, "bookmark": 0, "timetag": 0}, {"id": "S1162", "lat": "58.934980", "lon": "5.706000", "amenity": "recycling", "sortere_ref": "501", "source": "Sortere.no", "recycling_type": "container", "recycling": ["Glass packaging", "Metal packaging"], "location": "P-plass, Oljedirektoratet", "address": 0, "description": 0, "type": "returpunkt", "county": "Rogaland", "distance": 0, "bookmark": 0, "timetag": 0}, {"id": "S1163", "lat": "58.968070", "lon": "5.742940", "amenity": "recycling", "sortere_ref": "502", "source": "Sortere.no", "recycling_type": "container", "recycling": ["Glass packaging", "Metal packaging"], "location": "Kyviksmarka v/Hetland kirke", "address": 0, "description": 0, "type": "returpunkt", "county": "Rogaland", "distance": 0, "bookmark": 0, "timetag": 0}, {"id": "S1164", "lat": "58.971449", "lon": "5.750494", "amenity": "recycling", "sortere_ref": "503", "source": "Sortere.no", "recycling_type": "container", "recycling": ["Glass packaging", "Metal packaging"], "location": "Nedre Banegate", "address": 0, "description": 0, "type": "returpunkt", "county": "Rogaland", "distance": 0, "bookmark": 0, "timetag": 0}, {"id": "S1165", "lat": "58.959620", "lon": "5.752310", "amenity": "recycling", "sortere_ref": "504", "source": "Sortere.no", "recycling_type": "container", "recycling": ["Glass packaging", "Metal packaging"], "location": "Varden, Nymansveien", "address": 0, "description": 0, "type": "returpunkt", "county": "Rogaland", "distance": 0, "bookmark": 0, "timetag": 0}, {"id": "S1166", "lat": "58.977640", "lon": "5.744990", "amenity": "recycling", "sortere_ref": "505", "source": "Sortere.no", "recycling_type": "container", "recycling": ["Glass packaging", "Metal packaging"], "location": "S\u00f8lyst", "address": 0, "description": 0, "type": "returpunkt", "county": "Rogaland", "distance": 0, "bookmark": 0, "timetag": 0}, {"id": "S1167", "lat": "58.993150", "lon": "5.728830", "amenity": "recycling", "sortere_ref": "506", "source": "Sortere.no", "recycling_type": "container", "recycling": ["Glass packaging", "Metal packaging"], "location": "Rema 1000, Hundv\u00e5gkrossen", "address": 0, "description": 0, "type": "returpunkt", "county": "Rogaland", "distance": 0, "bookmark": 0, "timetag": 0}, {"id": "S1168", "lat": "59.001140", "lon": "5.741960", "amenity": "recycling", "sortere_ref": "508", "source": "Sortere.no", "recycling_type": "container", "recycling": ["Glass packaging", "Metal packaging"], "location": "Kiwi, Krosshaug/Loen", "address": 0, "description": 0, "type": "returpunkt", "county": "Rogaland", "distance": 0, "bookmark": 0, "timetag": 0}, {"id": "S1169", "lat": "59.003790", "lon": "5.755120", "amenity": "recycling", "sortere_ref": "509", "source": "Sortere.no", "recycling_type": "container", "recycling": ["Glass packaging", "Metal packaging"], "location": "Lundsv\u00e5gen naturskole", "address": 0, "description": 0, "type": "returpunkt", "county": "Rogaland", "distance": 0, "bookmark": 0, "timetag": 0}, {"id": "S1170", "lat": "58.991240", "lon": "5.761170", "amenity": "recycling", "sortere_ref": "510", "source": "Sortere.no", "recycling_type": "container", "recycling": ["Glass packaging", "Metal packaging"], "location": "Roalds\u00f8y v/kaien", "address": 0, "description": 0, "type": "returpunkt", "county": "Rogaland", "distance": 0, "bookmark": 0, "timetag": 0}, {"id": "S1171", "lat": "58.998240", "lon": "5.782690", "amenity": "recycling", "sortere_ref": "511", "source": "Sortere.no", "recycling_type": "container", "recycling": ["Glass packaging", "Metal packaging"], "location": "Vass\u00f8y v/kaien", "address": 0, "description": 0, "type": "returpunkt", "county": "Rogaland", "distance": 0, "bookmark": 0, "timetag": 0}, {"id": "S1172", "lat": "58.993440", "lon": "5.743270", "amenity": "recycling", "sortere_ref": "512", "source": "Sortere.no", "recycling_type": "container", "recycling": ["Glass packaging", "Metal packaging"], "location": "Austb\u00f8sletta", "address": 0, "description": 0, "type": "returpunkt", "county": "Rogaland", "distance": 0, "bookmark": 0, "timetag": 0}, {"id": "S1173", "lat": "58.956030", "lon": "5.635810", "amenity": "recycling", "sortere_ref": "515", "source": "Sortere.no", "recycling_type": "container", "recycling": ["Glass packaging", "Metal packaging"], "location": "Rema 1000, S\u00f8ra Br\u00e5de", "address": 0, "description": 0, "type": "returpunkt", "county": "Rogaland", "distance": 0, "bookmark": 0, "timetag": 0}, {"id": "S1174", "lat": "58.938170", "lon": "5.697930", "amenity": "recycling", "sortere_ref": "517", "source": "Sortere.no", "recycling_type": "container", "recycling": ["Glass packaging", "Metal packaging"], "location": "Ullandhaug, Kjell Arholms gate 26", "address": 0, "description": 0, "type": "returpunkt", "county": "Rogaland", "distance": 0, "bookmark": 0, "timetag": 0}, {"id": "S1175", "lat": "58.958100", "lon": "5.748770", "amenity": "recycling", "sortere_ref": "518", "source": "Sortere.no", "recycling_type": "container", "recycling": ["Glass packaging", "Metal packaging"], "location": "Hjelmelandsgate/Hellelandsveien", "address": 0, "description": 0, "type": "returpunkt", "county": "Rogaland", "distance": 0, "bookmark": 0, "timetag": 0}, {"id": "S1176", "lat": "61.912440", "lon": "5.981320", "amenity": "recycling", "sortere_ref": "534", "source": "Sortere.no", "recycling_type": "container", "recycling": ["Glass packaging", "Metal packaging"], "location": "Nordfjordeid v/ Esso", "address": "Sj\u00f8gata 111, 6770 Nordfjordeid", "description": 0, "type": "returpunkt", "county": "Sogn og Fjordane", "distance": 0, "bookmark": 0, "timetag": 0}, {"id": "S1177", "lat": "70.668620", "lon": "23.695390", "amenity": "recycling", "sortere_ref": "538", "source": "Sortere.no", "recycling_type": "container", "recycling": ["Glass packaging"], "location": "Mollasvingen- ved Esso", "address": 0, "description": "p align=&quot;left&quot;&gt;font face=&quot;Verdana&quot; size=&quot;2&quot;&gt;strong&gt;Til returpunktene kan du levere\u00a0f\u00f8lgende fraksjoner:/strong&gt;/font&gt;/p align=&quot;left&quot;&gt;font face=&quot;Verdana&quot; size=&quot;2&quot;&gt;- brunnpapp/font&gt;/p align=&quot;left&quot;&gt;font face=&quot;Verdana&quot; size=&quot;2&quot;&gt;-\u00a0pap", "type": "returpunkt", "county": 0, "distance": 0, "bookmark": 0, "timetag": 0}, {"id": "S1178", "lat": "60.342070", "lon": "11.018170", "amenity": "recycling", "sortere_ref": "548", "source": "Sortere.no", "recycling_type": "container", "recycling": ["Glass packaging", "Metal packaging"], "location": "Sandsnesseter v/Grendehuset", "address": "2032 MAURA", "description": 0, "type": "returpunkt", "county": "Akershus", "distance": 0, "bookmark": 0, "timetag": 0}, {"id": "S1179", "lat": "60.258040", "lon": "11.035420", "amenity": "recycling", "sortere_ref": "549", "source": "Sortere.no", "recycling_type": "container", "recycling": ["Glass packaging", "Metal packaging"], "location": "Sandholtg\u00e5rden, Maura", "address": "2032 MAURA", "description": 0, "type": "returpunkt", "county": "Akershus", "distance": 0, "bookmark": 0, "timetag": 0}, {"id": "S1180", "lat": "60.262600", "lon": "10.991720", "amenity": "recycling", "sortere_ref": "550", "source": "Sortere.no", "recycling_type": "container", "recycling": ["Glass packaging", "Metal packaging", "Textiles, clothes and shoes"], "location": "KIWI Maura", "address": "2032 MAURA", "description": "Returpunkt st\u00e5r sammen med UFF-container.", "type": "returpunkt", "county": "Akershus", "distance": 0, "bookmark": 0, "timetag": 0}, {"id": "S1181", "lat": "60.220460", "lon": "11.014350", "amenity": "recycling", "sortere_ref": "551", "source": "Sortere.no", "recycling_type": "container", "recycling": ["Glass packaging", "Metal packaging", "Textiles, clothes and shoes"], "location": "Bussterminal sentrum, Nannestad", "address": "2030 NANNESTAD", "description": "Returpunkt st\u00e5r sammen med UFF-container.", "type": "returpunkt", "county": "Akershus", "distance": 0, "bookmark": 0, "timetag": 0}, {"id": "S1182", "lat": "60.232717", "lon": "10.998317", "amenity": "recycling", "sortere_ref": "552", "source": "Sortere.no", "recycling_type": "container", "recycling": ["Glass packaging", "Metal packaging"], "location": "Rustadvegen v/Portalen", "address": "2030 NANNESTAD", "description": 0, "type": "returpunkt", "county": "Akershus", "distance": 0, "bookmark": 0, "timetag": 0}, {"id": "S1183", "lat": "60.171060", "lon": "10.989720", "amenity": "recycling", "sortere_ref": "553", "source": "Sortere.no", "recycling_type": "container", "recycling": ["Glass packaging", "Metal packaging"], "location": "\u00c5sgreina v/ gamle renseanlegg", "address": "2033 \u00c5SGREINA", "description": 0, "type": "returpunkt", "county": "Akershus", "distance": 0, "bookmark": 0, "timetag": 0}, {"id": "S1184", "lat": "60.135780", "lon": "11.023190", "amenity": "recycling", "sortere_ref": "554", "source": "Sortere.no", "recycling_type": "container", "recycling": ["Glass packaging", "Metal packaging", "Textiles, clothes and shoes"], "location": "Elton\u00e5sen - vis-\u00e0-vis RIMI", "address": "2034 HOLTER", "description": "Returpunkt st\u00e5r sammen med UFF-container.", "type": "returpunkt", "county": "Akershus", "distance": 0, "bookmark": 0, "timetag": 0}, {"id": "S1185", "lat": "60.221572", "lon": "11.082073", "amenity": "recycling", "sortere_ref": "556", "source": "Sortere.no", "recycling_type": "container", "recycling": ["Glass packaging", "Metal packaging"], "location": "Moreppen Pumpehus", "address": "2030 ", "description": "Returpunktet flyttes fra Moreppen Grendehus og til kommunens pumpehus ved krysset (Prest\u00e5svegen) - avkj\u00f8ring mot Nannestad sentrum.", "type": "returpunkt", "county": "Akershus", "distance": 0, "bookmark": 0, "timetag": 0}, {"id": "S1186", "lat": "60.429530", "lon": "11.063920", "amenity": "recycling", "sortere_ref": "565", "source": "Sortere.no", "recycling_type": "container", "recycling": ["Glass packaging", "Metal packaging", "Textiles, clothes and shoes"], "location": "COOP Knai - Hurdal", "address": "2090 HURDAL", "description": "Returpunkt st\u00e5r sammen med UFF-container.", "type": "returpunkt", "county": "Akershus", "distance": 0, "bookmark": 0, "timetag": 0}, {"id": "S1187", "lat": "60.347740", "lon": "11.013410", "amenity": "recycling", "sortere_ref": "566", "source": "Sortere.no", "recycling_type": "container", "recycling": ["Glass packaging", "Metal packaging", "Textiles, clothes and shoes"], "location": "COOP Rustad - Hurdal", "address": "2090 HURDAL", "description": "Returpunkt st\u00e5r sammen med UFF-container.", "type": "returpunkt", "county": "Akershus", "distance": 0, "bookmark": 0, "timetag": 0}, {"id": "S1188", "lat": "60.482070", "lon": "11.012810", "amenity": "recycling", "sortere_ref": "568", "source": "Sortere.no", "recycling_type": "container", "recycling": ["Glass packaging", "Metal packaging"], "location": "Erikstellet Hurdal", "address": "2090 HURDAL", "description": 0, "type": "returpunkt", "county": "Akershus", "distance": 0, "bookmark": 0, "timetag": 0}, {"id": "S1189", "lat": "60.143620", "lon": "11.257510", "amenity": "recycling", "sortere_ref": "574", "source": "Sortere.no", "recycling_type": "container", "recycling": ["Glass packaging", "Metal packaging"], "location": "Algarheim Gamle Skolen - Ullensaker", "address": "2056 ALGARHEIM", "description": 0, "type": "returpunkt", "county": "Akershus", "distance": 0, "bookmark": 0, "timetag": 0}, {"id": "S1190", "lat": "60.140610", "lon": "11.211120", "amenity": "recycling", "sortere_ref": "575", "source": "Sortere.no", "recycling_type": "container", "recycling": ["Glass packaging", "Metal packaging", "Textiles, clothes and shoes"], "location": "RIMI Algarheim", "address": "2052 JESSHEIM", "description": 0, "type": "returpunkt", "county": "Akershus", "distance": 0, "bookmark": 0, "timetag": 0}, {"id": "S1191", "lat": "60.141380", "lon": "11.191510", "amenity": "recycling", "sortere_ref": "582", "source": "Sortere.no", "recycling_type": "container", "recycling": ["Glass packaging", "Metal packaging"], "location": "Jessheim Bowling 1 Gystad N\u00e6ringspark", "address": "2050 JESSHEIM", "description": 0, "type": "returpunkt", "county": "Akershus", "distance": 0, "bookmark": 0, "timetag": 0}, {"id": "S1192", "lat": "60.147100", "lon": "11.171290", "amenity": "recycling", "sortere_ref": "585", "source": "Sortere.no", "recycling_type": "container", "recycling": ["Glass packaging", "Metal packaging"], "location": "ESSO Jessheim", "address": "2050 JESSHEIM", "description": 0, "type": "returpunkt", "county": "Akershus", "distance": 0, "bookmark": 0, "timetag": 0}, {"id": "S1193", "lat": "60.233173", "lon": "11.198210", "amenity": "recycling", "sortere_ref": "586", "source": "Sortere.no", "recycling_type": "container", "recycling": ["Glass packaging", "Metal packaging", "Textiles, clothes and shoes"], "location": "Milj\u00f8stasjon Dal Skog - Glass- og metallemballasje", "address": "\u00d8rasvegen 85, 2054 MOGREINA", "description": "UFF-containere og FRETEX-containere st\u00e5r i stor hall inn ved EE-mottaket.", "type": "returpunkt", "county": "Akershus", "distance": 0, "bookmark": 0, "timetag": 0}, {"id": "S1194", "lat": "60.076125", "lon": "11.136121", "amenity": "recycling", "sortere_ref": "589", "source": "Sortere.no", "recycling_type": "container", "recycling": ["Glass packaging", "Metal packaging", "Textiles, clothes and shoes"], "location": "Romerikssenteret Kl\u00f8fta", "address": "2040 KL\u00d8FTA", "description": "Parkeringsplass", "type": "returpunkt", "county": "Akershus", "distance": 0, "bookmark": 0, "timetag": 0}, {"id": "S1195", "lat": "60.153020", "lon": "11.129540", "amenity": "recycling", "sortere_ref": "590", "source": "Sortere.no", "recycling_type": "container", "recycling": ["Glass packaging", "Metal packaging"], "location": "KIWI Sand", "address": "2050 JESSHEIM", "description": "I 2012 ble UFF-containere for innsamling av brukt t\u00f8y og sko inndratt pga fors\u00f8pling.", "type": "returpunkt", "county": "Akershus", "distance": 0, "bookmark": 0, "timetag": 0}, {"id": "S1196", "lat": "60.092710", "lon": "11.214640", "amenity": "recycling", "sortere_ref": "597", "source": "Sortere.no", "recycling_type": "container", "recycling": ["Glass packaging", "Metal packaging"], "location": "Kl\u00f8fta Borgen P-Plass v/E16", "address": "2040 KL\u00d8FTA", "description": "Egen lomme ved E16 mellom Kl\u00f8fta og Kongsvinger", "type": "returpunkt", "county": "Akershus", "distance": 0, "bookmark": 0, "timetag": 0}, {"id": "S1197", "lat": "60.229404", "lon": "11.166783", "amenity": "recycling", "sortere_ref": "598", "source": "Sortere.no", "recycling_type": "container", "recycling": ["Glass packaging", "Metal packaging"], "location": "Mogreina Barnehage", "address": "2054 MOGREINA", "description": "Ved dypoppsamlere utenfor barnehagen", "type": "returpunkt", "county": "Akershus", "distance": 0, "bookmark": 0, "timetag": 0}, {"id": "S1198", "lat": "60.409523", "lon": "10.553559", "amenity": "recycling", "sortere_ref": "602", "source": "Sortere.no", "recycling_type": "container", "recycling": ["Glass packaging", "Metal packaging", "Garden waste", "Textiles, clothes and shoes"], "location": "Mohagen gjenvinningsstasjon", "address": 0, "description": 0, "type": "returpunkt", "county": "Oppland", "distance": 0, "bookmark": 0, "timetag": 0}, {"id": "S1199", "lat": "58.846248", "lon": "5.732785", "amenity": "recycling", "sortere_ref": "618", "source": "Sortere.no", "recycling_type": "container", "recycling": ["Glass packaging", "Metal packaging"], "location": "Bruelandsenteret", "address": 0, "description": "Nedgravde beholdere", "type": "returpunkt", "county": "Rogaland", "distance": 0, "bookmark": 0, "timetag": 0}, {"id": "S1200", "lat": "58.787661", "lon": "5.808232", "amenity": "recycling", "sortere_ref": "620", "source": "Sortere.no", "recycling_type": "container", "recycling": ["Garden waste"], "location": "Figgjohallen", "address": 0, "description": "Innsamling av hageavfall 2019,", "type": "returpunkt", "county": "Rogaland", "distance": 0, "bookmark": 0, "timetag": 0}, {"id": "S1201", "lat": "58.853375", "lon": "5.761771", "amenity": "recycling", "sortere_ref": "621", "source": "Sortere.no", "recycling_type": "container", "recycling": ["Glass packaging", "Metal packaging"], "location": "Eddaveien v/Skippergaten", "address": 0, "description": 0, "type": "returpunkt", "county": "Rogaland", "distance": 0, "bookmark": 0, "timetag": 0}, {"id": "S1202", "lat": "69.978970", "lon": "23.304530", "amenity": "recycling", "sortere_ref": "624", "source": "Sortere.no", "recycling_type": "container", "recycling": ["Batteries", "Explosive waste", "Dangerous waste"], "location": "Finnmark Gjenvinning Avd. Farlig Avfall", "address": "Amtmannsnesveien, 9515 Alta", "description": 0, "type": "farlig", "county": "Finnmark", "distance": 0, "bookmark": 0, "timetag": 0}, {"id": "S1203", "lat": "69.973770", "lon": "23.369140", "amenity": "recycling", "sortere_ref": "625", "source": "Sortere.no", "recycling_type": "container", "recycling": ["Glass packaging", "Metal packaging", "Textiles, clothes and shoes"], "location": "Elvebakken v/Extra", "address": "9515 Alta", "description": "V/ Parkeringsplass", "type": "returpunkt", "county": "Finnmark", "distance": 0, "bookmark": 0, "timetag": 0}, {"id": "S1204", "lat": "69.975897", "lon": "23.325946", "amenity": "recycling", "sortere_ref": "626", "source": "Sortere.no", "recycling_type": "container", "recycling": ["Glass packaging", "Metal packaging"], "location": "Bukta v/Europris", "address": "Buktaveien, 9515 Alta", "description": "Parkeringsplass", "type": "returpunkt", "county": "Finnmark", "distance": 0, "bookmark": 0, "timetag": 0}, {"id": "S1205", "lat": "69.932550", "lon": "23.429910", "amenity": "recycling", "sortere_ref": "628", "source": "Sortere.no", "recycling_type": "container", "recycling": ["Glass packaging", "Metal packaging"], "location": "Tverrelvdalen v/Joker", "address": 0, "description": 0, "type": "returpunkt", "county": "Finnmark", "distance": 0, "bookmark": 0, "timetag": 0}, {"id": "S1206", "lat": "69.972130", "lon": "23.276360", "amenity": "recycling", "sortere_ref": "629", "source": "Sortere.no", "recycling_type": "container", "recycling": ["Glass packaging", "Metal packaging"], "location": "Midtbakken v/Extra", "address": 0, "description": "v/parkeringsplass", "type": "returpunkt", "county": "Finnmark", "distance": 0, "bookmark": 0, "timetag": 0}, {"id": "S1207", "lat": "69.965457", "lon": "23.274236", "amenity": "recycling", "sortere_ref": "630", "source": "Sortere.no", "recycling_type": "container", "recycling": ["Glass packaging", "Metal packaging", "Textiles, clothes and shoes"], "location": "Alta Sentrum", "address": "Hesteskoen, 9510 Alta", "description": 0, "type": "returpunkt", "county": "Finnmark", "distance": 0, "bookmark": 0, "timetag": 0}, {"id": "S1208", "lat": "69.960804", "lon": "23.227796", "amenity": "recycling", "sortere_ref": "631", "source": "Sortere.no", "recycling_type": "container", "recycling": ["Glass packaging", "Metal packaging", "Textiles, clothes and shoes"], "location": "Bossekop v/Bunnpris Gourmet Bossekop", "address": "Skiferveien 2, 9513 Alta", "description": "Parkeringsplass", "type": "returpunkt", "county": "Finnmark", "distance": 0, "bookmark": 0, "timetag": 0}, {"id": "S1209", "lat": "69.953560", "lon": "23.214280", "amenity": "recycling", "sortere_ref": "632", "source": "Sortere.no", "recycling_type": "container", "recycling": ["Glass packaging", "Metal packaging"], "location": "Gakori v/Extra", "address": 0, "description": 0, "type": "returpunkt", "county": "Finnmark", "distance": 0, "bookmark": 0, "timetag": 0}, {"id": "S1210", "lat": "70.040570", "lon": "22.951820", "amenity": "recycling", "sortere_ref": "633", "source": "Sortere.no", "recycling_type": "container", "recycling": ["Glass packaging", "Metal packaging"], "location": "Talvik Coop Marked", "address": 0, "description": 0, "type": "returpunkt", "county": "Finnmark", "distance": 0, "bookmark": 0, "timetag": 0}, {"id": "S1211", "lat": "69.957910", "lon": "23.381570", "amenity": "recycling", "sortere_ref": "634", "source": "Sortere.no", "recycling_type": "container", "recycling": ["Glass packaging", "Metal packaging"], "location": "Kaiskuru v/bussholdeplass", "address": 0, "description": 0, "type": "returpunkt", "county": "Finnmark", "distance": 0, "bookmark": 0, "timetag": 0}, {"id": "S1212", "lat": "70.025510", "lon": "22.284740", "amenity": "recycling", "sortere_ref": "635", "source": "Sortere.no", "recycling_type": "container", "recycling": ["Glass packaging", "Metal packaging"], "location": "Langfjordbotn v/butikken", "address": 0, "description": 0, "type": "returpunkt", "county": "Finnmark", "distance": 0, "bookmark": 0, "timetag": 0}, {"id": "S1213", "lat": "69.928050", "lon": "23.264320", "amenity": "recycling", "sortere_ref": "636", "source": "Sortere.no", "recycling_type": "container", "recycling": ["Glass packaging", "Metal packaging"], "location": "\u00d8vre Alta v/skolen", "address": 0, "description": 0, "type": "returpunkt", "county": "Finnmark", "distance": 0, "bookmark": 0, "timetag": 0}, {"id": "S1214", "lat": "69.967830", "lon": "23.280610", "amenity": "recycling", "sortere_ref": "637", "source": "Sortere.no", "recycling_type": "container", "recycling": ["Glass packaging", "Metal packaging"], "location": "Nyland studentbolig", "address": 0, "description": 0, "type": "returpunkt", "county": "Finnmark", "distance": 0, "bookmark": 0, "timetag": 0}, {"id": "S1215", "lat": "70.018970", "lon": "23.538320", "amenity": "recycling", "sortere_ref": "638", "source": "Sortere.no", "recycling_type": "container", "recycling": ["Glass packaging", "Metal packaging"], "location": "Rafsbotn v/Coop marked", "address": 0, "description": 0, "type": "returpunkt", "county": "Finnmark", "distance": 0, "bookmark": 0, "timetag": 0}, {"id": "S1216", "lat": "70.120210", "lon": "23.394700", "amenity": "recycling", "sortere_ref": "639", "source": "Sortere.no", "recycling_type": "container", "recycling": ["Glass packaging", "Metal packaging"], "location": "Kviby v/Coop", "address": 0, "description": 0, "type": "returpunkt", "county": "Finnmark", "distance": 0, "bookmark": 0, "timetag": 0}, {"id": "S1217", "lat": "70.245820", "lon": "23.395860", "amenity": "recycling", "sortere_ref": "640", "source": "Sortere.no", "recycling_type": "container", "recycling": ["Glass packaging", "Metal packaging"], "location": "Korsfjord v/butikken", "address": 0, "description": 0, "type": "returpunkt", "county": "Finnmark", "distance": 0, "bookmark": 0, "timetag": 0}, {"id": "S1218", "lat": "70.226170", "lon": "23.380450", "amenity": "recycling", "sortere_ref": "641", "source": "Sortere.no", "recycling_type": "container", "recycling": ["Glass packaging", "Metal packaging"], "location": "Nyvoll v/fergekaia", "address": 0, "description": 0, "type": "returpunkt", "county": "Finnmark", "distance": 0, "bookmark": 0, "timetag": 0}, {"id": "S1219", "lat": "70.214580", "lon": "23.193430", "amenity": "recycling", "sortere_ref": "642", "source": "Sortere.no", "recycling_type": "container", "recycling": ["Glass packaging", "Metal packaging"], "location": "Storekorsnes v/ P.plass", "address": 0, "description": 0, "type": "returpunkt", "county": "Finnmark", "distance": 0, "bookmark": 0, "timetag": 0}, {"id": "S1220", "lat": "70.143510", "lon": "23.269040", "amenity": "recycling", "sortere_ref": "643", "source": "Sortere.no", "recycling_type": "container", "recycling": ["Glass packaging", "Metal packaging"], "location": "\u00c5r\u00f8ya", "address": 0, "description": 0, "type": "returpunkt", "county": "Finnmark", "distance": 0, "bookmark": 0, "timetag": 0}, {"id": "S1221", "lat": "70.318464", "lon": "22.871647", "amenity": "recycling", "sortere_ref": "644", "source": "Sortere.no", "recycling_type": "container", "recycling": ["Glass packaging", "Metal packaging"], "location": "Kvalfjord v/kaia", "address": 0, "description": 0, "type": "returpunkt", "county": "Finnmark", "distance": 0, "bookmark": 0, "timetag": 0}, {"id": "S1222", "lat": "70.278340", "lon": "23.122190", "amenity": "recycling", "sortere_ref": "645", "source": "Sortere.no", "recycling_type": "container", "recycling": ["Glass packaging", "Metal packaging"], "location": "Hakkstabben", "address": 0, "description": 0, "type": "returpunkt", "county": "Finnmark", "distance": 0, "bookmark": 0, "timetag": 0}, {"id": "S1223", "lat": "70.259000", "lon": "22.359710", "amenity": "recycling", "sortere_ref": "646", "source": "Sortere.no", "recycling_type": "container", "recycling": ["Batteries", "Explosive waste", "Dangerous waste", "Glass packaging", "Metal packaging"], "location": "Omlastestasjon Ystnes", "address": 0, "description": "Dette returpunket ble flyttet fra Polarfeed til v\u00e5r omlastestasjon da det var fors\u00f8pling rundt punktet/", "type": "farlig", "county": "Finnmark", "distance": 0, "bookmark": 0, "timetag": 0}, {"id": "S1224", "lat": "70.266290", "lon": "22.109470", "amenity": "recycling", "sortere_ref": "647", "source": "Sortere.no", "recycling_type": "container", "recycling": ["Glass packaging", "Metal packaging"], "location": "Nuvsv\u00e5g v/butikken", "address": 0, "description": 0, "type": "returpunkt", "county": "Finnmark", "distance": 0, "bookmark": 0, "timetag": 0}, {"id": "S1225", "lat": "70.251770", "lon": "21.785370", "amenity": "recycling", "sortere_ref": "648", "source": "Sortere.no", "recycling_type": "container", "recycling": ["Glass packaging", "Metal packaging"], "location": "Bergsjord v/fergeleie", "address": 0, "description": 0, "type": "returpunkt", "county": "Finnmark", "distance": 0, "bookmark": 0, "timetag": 0}, {"id": "S1226", "lat": "70.267400", "lon": "21.602700", "amenity": "recycling", "sortere_ref": "649", "source": "Sortere.no", "recycling_type": "container", "recycling": ["Glass packaging", "Metal packaging"], "location": "Sandland v/butikken", "address": 0, "description": 0, "type": "returpunkt", "county": "Finnmark", "distance": 0, "bookmark": 0, "timetag": 0}, {"id": "S1227", "lat": "70.484110", "lon": "22.163410", "amenity": "recycling", "sortere_ref": "650", "source": "Sortere.no", "recycling_type": "container", "recycling": ["Glass packaging", "Metal packaging"], "location": "Hasvik v/fergeleie", "address": 0, "description": 0, "type": "returpunkt", "county": "Finnmark", "distance": 0, "bookmark": 0, "timetag": 0}, {"id": "S1228", "lat": "70.589340", "lon": "22.286990", "amenity": "recycling", "sortere_ref": "651", "source": "Sortere.no", "recycling_type": "container", "recycling": ["Glass packaging", "Metal packaging"], "location": "Breivikbotn", "address": 0, "description": 0, "type": "returpunkt", "county": "Finnmark", "distance": 0, "bookmark": 0, "timetag": 0}, {"id": "S1229", "lat": "70.629570", "lon": "21.982000", "amenity": "recycling", "sortere_ref": "652", "source": "Sortere.no", "recycling_type": "container", "recycling": ["Glass packaging", "Metal packaging"], "location": "S\u00f8rv\u00e6r v/servicebygget", "address": 0, "description": 0, "type": "returpunkt", "county": "Finnmark", "distance": 0, "bookmark": 0, "timetag": 0}, {"id": "S1230", "lat": "69.021530", "lon": "23.047590", "amenity": "recycling", "sortere_ref": "653", "source": "Sortere.no", "recycling_type": "container", "recycling": ["Glass packaging", "Metal packaging"], "location": "Statoil Kautokeino", "address": 0, "description": 0, "type": "returpunkt", "county": "Finnmark", "distance": 0, "bookmark": 0, "timetag": 0}, {"id": "S1231", "lat": "69.004450", "lon": "23.041850", "amenity": "recycling", "sortere_ref": "654", "source": "Sortere.no", "recycling_type": "container", "recycling": ["Glass packaging", "Metal packaging"], "location": "Rema 1000", "address": 0, "description": 0, "type": "returpunkt", "county": "Finnmark", "distance": 0, "bookmark": 0, "timetag": 0}, {"id": "S1232", "lat": "69.443680", "lon": "23.667620", "amenity": "recycling", "sortere_ref": "655", "source": "Sortere.no", "recycling_type": "container", "recycling": ["Glass packaging", "Metal packaging"], "location": "Maze v/butikken", "address": 0, "description": 0, "type": "returpunkt", "county": "Finnmark", "distance": 0, "bookmark": 0, "timetag": 0}, {"id": "S1233", "lat": "69.208080", "lon": "23.759690", "amenity": "recycling", "sortere_ref": "656", "source": "Sortere.no", "recycling_type": "container", "recycling": ["Glass packaging", "Metal packaging"], "location": "Lahpoluoppa v/skolen", "address": 0, "description": 0, "type": "returpunkt", "county": "Finnmark", "distance": 0, "bookmark": 0, "timetag": 0}, {"id": "S1234", "lat": "58.857177", "lon": "5.740648", "amenity": "recycling", "sortere_ref": "686", "source": "Sortere.no", "recycling_type": "container", "recycling": ["Glass packaging", "Metal packaging"], "location": "Gandsgata", "address": 0, "description": "Nedgravde beholdere/", "type": "returpunkt", "county": "Rogaland", "distance": 0, "bookmark": 0, "timetag": 0}, {"id": "S1235", "lat": "58.825307", "lon": "5.821320", "amenity": "recycling", "sortere_ref": "687", "source": "Sortere.no", "recycling_type": "container", "recycling": ["Glass packaging", "Metal packaging", "Garden waste"], "location": "Sviland ved samfunnshuset", "address": 0, "description": "Innsamling av hageavfall 2019,", "type": "returpunkt", "county": "Rogaland", "distance": 0, "bookmark": 0, "timetag": 0}, {"id": "S1236", "lat": "58.822039", "lon": "5.716344", "amenity": "recycling", "sortere_ref": "688", "source": "Sortere.no", "recycling_type": "container", "recycling": ["Glass packaging", "Metal packaging"], "location": "Kvernelandsveien/Hoveveien", "address": 0, "description": 0, "type": "returpunkt", "county": "Rogaland", "distance": 0, "bookmark": 0, "timetag": 0}, {"id": "S1237", "lat": "58.895093", "lon": "6.017261", "amenity": "recycling", "sortere_ref": "689", "source": "Sortere.no", "recycling_type": "container", "recycling": ["Glass packaging", "Metal packaging"], "location": "H\u00f8le v/ Handelslaget", "address": 0, "description": 0, "type": "returpunkt", "county": "Rogaland", "distance": 0, "bookmark": 0, "timetag": 0}, {"id": "S1238", "lat": "58.876027", "lon": "5.723449", "amenity": "recycling", "sortere_ref": "690", "source": "Sortere.no", "recycling_type": "container", "recycling": ["Glass packaging", "Metal packaging"], "location": "Kvadrat", "address": 0, "description": 0, "type": "returpunkt", "county": "Rogaland", "distance": 0, "bookmark": 0, "timetag": 0}, {"id": "S1239", "lat": "58.831640", "lon": "5.660430", "amenity": "recycling", "sortere_ref": "691", "source": "Sortere.no", "recycling_type": "container", "recycling": ["Glass packaging", "Metal packaging"], "location": "Malmheim v/bydelshuset", "address": 0, "description": 0, "type": "returpunkt", "county": "Rogaland", "distance": 0, "bookmark": 0, "timetag": 0}, {"id": "S1240", "lat": "58.865878", "lon": "5.736231", "amenity": "recycling", "sortere_ref": "692", "source": "Sortere.no", "recycling_type": "container", "recycling": ["Glass packaging", "Metal packaging"], "location": "Rema 1000 v/Postveien", "address": "Postveien, ", "description": 0, "type": "returpunkt", "county": "Rogaland", "distance": 0, "bookmark": 0, "timetag": 0}, {"id": "S1241", "lat": "58.846819", "lon": "5.714968", "amenity": "recycling", "sortere_ref": "693", "source": "Sortere.no", "recycling_type": "container", "recycling": ["Glass packaging", "Metal packaging"], "location": "Stangeland, Foren/Heigreveien", "address": 0, "description": 0, "type": "returpunkt", "county": "Rogaland", "distance": 0, "bookmark": 0, "timetag": 0},